[{"name": "Berlin", "description": "Stadt", "lat": 52.510885, "lon": 13.3989367}, {"name": "Hamburg", "description": "Freie und Hansestadt", "lat": 53.550341, "lon": 10.000654}, {"name": "M\u00fcnchen", "description": "Landeshauptstadt", "lat": 48.1371079, "lon": 11.5753822}, {"name": "K\u00f6ln", "description": "Stadt", "lat": 50.938361, "lon": 6.959974}, {"name": "Frankfurt am Main", "description": "Stadt", "lat": 50.1106444, "lon": 8.6820917}, {"name": "Stuttgart", "description": "Landeshauptstadt", "lat": 48.7784485, "lon": 9.1800132}, {"name": "D\u00fcsseldorf", "description": "Stadt", "lat": 51.2254018, "lon": 6.7763137}, {"name": "Leipzig", "description": "Stadt", "lat": 51.3406321, "lon": 12.3747329}, {"name": "Dortmund", "description": "Stadt", "lat": 51.5142273, "lon": 7.4652789}, {"name": "Essen", "description": "Stadt", "lat": 51.4582235, "lon": 7.0158171}, {"name": "Bremen", "description": "Stadt", "lat": 53.0758196, "lon": 8.8071646}, {"name": "Dresden", "description": "Stadt", "lat": 51.0493286, "lon": 13.7381437}, {"name": "Hannover", "description": "Landeshauptstadt", "lat": 52.3744779, "lon": 9.7385532}, {"name": "N\u00fcrnberg", "description": null, "lat": 49.453872, "lon": 11.077298}, {"name": "Duisburg", "description": "Stadt", "lat": 51.434999, "lon": 6.759562}, {"name": "Bochum", "description": "Stadt", "lat": 51.4818111, "lon": 7.2196635}, {"name": "Wuppertal", "description": "Stadt", "lat": 51.264018, "lon": 7.1780374}, {"name": "Bielefeld", "description": "Stadt", "lat": 52.0191005, "lon": 8.531007}, {"name": "Bonn", "description": "Stadt", "lat": 50.7352621, "lon": 7.1024635}, {"name": "M\u00fcnster", "description": "Stadt", "lat": 51.9625101, "lon": 7.6251879}, {"name": "Mannheim", "description": "Universit\u00e4tsstadt", "lat": 49.4892913, "lon": 8.4673098}, {"name": "Karlsruhe", "description": "Stadt", "lat": 49.0068705, "lon": 8.4034195}, {"name": "Augsburg", "description": null, "lat": 48.3690341, "lon": 10.8979522}, {"name": "Wiesbaden", "description": "Landeshauptstadt", "lat": 50.0820384, "lon": 8.2416556}, {"name": "M\u00f6nchengladbach", "description": "Stadt", "lat": 51.1947131, "lon": 6.4353792}, {"name": "Gelsenkirchen", "description": "Stadt", "lat": 51.5110321, "lon": 7.0960124}, {"name": "Aachen", "description": "Stadt", "lat": 50.776351, "lon": 6.083862}, {"name": "Braunschweig", "description": "Stadt", "lat": 52.2646577, "lon": 10.5236066}, {"name": "Chemnitz", "description": "Stadt", "lat": 50.8323531, "lon": 12.918914}, {"name": "Kiel", "description": "Landeshauptstadt", "lat": 54.3227085, "lon": 10.135555}, {"name": "Halle (Saale)", "description": "Stadt", "lat": 51.4825041, "lon": 11.9705452}, {"name": "Magdeburg", "description": "Landeshauptstadt", "lat": 52.1315889, "lon": 11.6399609}, {"name": "Freiburg im Breisgau", "description": "Stadt", "lat": 47.9960901, "lon": 7.8494005}, {"name": "Krefeld", "description": "Stadt", "lat": 51.3331205, "lon": 6.5623343}, {"name": "Mainz", "description": "Stadt", "lat": 49.9995205, "lon": 8.2736253}, {"name": "L\u00fcbeck", "description": "Hansestadt", "lat": 53.866444, "lon": 10.684738}, {"name": "Erfurt", "description": "Stadt", "lat": 50.9777974, "lon": 11.0287364}, {"name": "Oberhausen", "description": "Stadt", "lat": 51.4696137, "lon": 6.8514435}, {"name": "Rostock", "description": "Hanse- und Universit\u00e4tsstadt", "lat": 54.0886707, "lon": 12.1400211}, {"name": "Kassel", "description": "documenta-Stadt", "lat": 51.3157833, "lon": 9.4978479}, {"name": "Hagen", "description": "Stadt der FernUniversit\u00e4t", "lat": 51.3582945, "lon": 7.473296}, {"name": "Potsdam", "description": "Stadt", "lat": 52.4009309, "lon": 13.0591397}, {"name": "Saarbr\u00fccken", "description": "Landeshauptstadt", "lat": 49.234362, "lon": 6.996379}, {"name": "Hamm", "description": "Stadt", "lat": 51.681281, "lon": 7.8191185}, {"name": "Ludwigshafen am Rhein", "description": "Stadt", "lat": 49.4704113, "lon": 8.4381568}, {"name": "Oldenburg (Oldenburg)", "description": "Stadt", "lat": 53.1389753, "lon": 8.2146017}, {"name": "M\u00fclheim an der Ruhr", "description": "Stadt", "lat": 51.4272925, "lon": 6.8829192}, {"name": "Osnabr\u00fcck", "description": "Stadt", "lat": 52.2719595, "lon": 8.047635}, {"name": "Leverkusen", "description": "Stadt", "lat": 51.0324743, "lon": 6.9881194}, {"name": "Darmstadt", "description": "Wissenschaftsstadt", "lat": 49.8851869, "lon": 8.6736295}, {"name": "Heidelberg", "description": "Stadt", "lat": 49.4093582, "lon": 8.694724}, {"name": "Solingen", "description": "Klingenstadt", "lat": 51.1721629, "lon": 7.0845893}, {"name": "Regensburg", "description": null, "lat": 49.0195333, "lon": 12.0974869}, {"name": "Herne", "description": "Stadt", "lat": 51.5380394, "lon": 7.219985}, {"name": "Paderborn", "description": "Stadt", "lat": 51.7177044, "lon": 8.752653}, {"name": "Neuss", "description": "Stadt", "lat": 51.1981778, "lon": 6.6916476}, {"name": "Ingolstadt", "description": null, "lat": 48.7630165, "lon": 11.4250395}, {"name": "Offenbach am Main", "description": "Stadt", "lat": 50.1055002, "lon": 8.7610698}, {"name": "F\u00fcrth", "description": null, "lat": 49.6599, "lon": 8.7809}, {"name": "Heilbronn", "description": "Universit\u00e4tsstadt", "lat": 49.142291, "lon": 9.218655}, {"name": "Ulm", "description": "Universit\u00e4tsstadt", "lat": 48.3984968, "lon": 9.9912458}, {"name": "Pforzheim", "description": "Stadt", "lat": 48.8908846, "lon": 8.7029532}, {"name": "W\u00fcrzburg", "description": null, "lat": 49.7933723, "lon": 9.9309779}, {"name": "Wolfsburg", "description": "Stadt", "lat": 52.4205588, "lon": 10.7861682}, {"name": "G\u00f6ttingen", "description": "Stadt", "lat": 51.5328328, "lon": 9.9351811}, {"name": "Bottrop", "description": "Stadt", "lat": 51.521581, "lon": 6.929204}, {"name": "Reutlingen", "description": "Stadt", "lat": 48.4919508, "lon": 9.2114144}, {"name": "Erlangen", "description": null, "lat": 49.5928616, "lon": 11.0056}, {"name": "Koblenz", "description": "Stadt", "lat": 50.3533278, "lon": 7.5943951}, {"name": "Bremerhaven", "description": "Stadt", "lat": 53.5505392, "lon": 8.5851945}, {"name": "Remscheid", "description": "Stadt", "lat": 51.1798706, "lon": 7.1943544}, {"name": "Trier", "description": "Stadt", "lat": 49.7596208, "lon": 6.6441878}, {"name": "Bergisch Gladbach", "description": "Stadt", "lat": 50.9929303, "lon": 7.1277379}, {"name": "Recklinghausen", "description": "Stadt", "lat": 51.6143815, "lon": 7.1978546}, {"name": "Jena", "description": "Stadt", "lat": 50.9281717, "lon": 11.5879359}, {"name": "Moers", "description": "Stadt", "lat": 51.451283, "lon": 6.62843}, {"name": "Salzgitter", "description": "Stadt", "lat": 52.1503721, "lon": 10.3593147}, {"name": "Hanau", "description": "Br\u00fcder-Grimm-Stadt", "lat": 50.132881, "lon": 8.9169797}, {"name": "G\u00fctersloh", "description": "Stadt", "lat": 51.9063997, "lon": 8.3782078}, {"name": "Hildesheim", "description": "Stadt", "lat": 52.1527188, "lon": 9.9518083}, {"name": "Siegen", "description": "Universit\u00e4tsstadt", "lat": 50.8751175, "lon": 8.0256131}, {"name": "Kaiserslautern", "description": "Stadt", "lat": 49.4432174, "lon": 7.7689951}, {"name": "Cottbus/Ch\u00f3\u015bebuz", "description": "Stadt", "lat": 51.7567447, "lon": 14.3357307}, {"name": "Schwerin", "description": "Landeshauptstadt", "lat": 53.6288297, "lon": 11.4148038}, {"name": "Esslingen am Neckar", "description": "Stadt", "lat": 48.7427584, "lon": 9.3071685}, {"name": "Witten", "description": "Stadt", "lat": 51.4370171, "lon": 7.335124}, {"name": "Gie\u00dfen", "description": "Universit\u00e4tsstadt", "lat": 50.5862066, "lon": 8.6742306}, {"name": "Ludwigsburg", "description": "Stadt", "lat": 48.8953937, "lon": 9.1895147}, {"name": "Gera", "description": "Stadt", "lat": 50.8765537, "lon": 12.0832666}, {"name": "T\u00fcbingen", "description": "Universit\u00e4tsstadt", "lat": 48.5203263, "lon": 9.053596}, {"name": "D\u00fcren", "description": "Stadt", "lat": 50.8031684, "lon": 6.4820806}, {"name": "Flensburg", "description": "Stadt", "lat": 54.7833021, "lon": 9.4333264}, {"name": "Iserlohn", "description": "Stadt", "lat": 51.3746778, "lon": 7.6999713}, {"name": "Villingen-Schwenningen", "description": "Stadt", "lat": 48.0632359, "lon": 8.4945022}, {"name": "Zwickau", "description": "Stadt", "lat": 50.7185043, "lon": 12.4939267}, {"name": "Ratingen", "description": "Stadt", "lat": 51.2973261, "lon": 6.8493503}, {"name": "L\u00fcnen", "description": "Stadt", "lat": 51.6142482, "lon": 7.5228088}, {"name": "Konstanz", "description": "Universit\u00e4tsstadt", "lat": 47.659216, "lon": 9.1750718}, {"name": "Worms", "description": "Stadt", "lat": 49.6302618, "lon": 8.3620898}, {"name": "Marl", "description": "Stadt", "lat": 51.6485843, "lon": 7.0829054}, {"name": "Minden", "description": "Stadt", "lat": 52.2881045, "lon": 8.9168852}, {"name": "Norderstedt", "description": "Stadt", "lat": 53.7089898, "lon": 9.9891914}, {"name": "Velbert", "description": "Stadt", "lat": 51.3406713, "lon": 7.0439912}, {"name": "Bamberg", "description": null, "lat": 49.8916044, "lon": 10.8868478}, {"name": "Neum\u00fcnster", "description": "Stadt", "lat": 54.0757442, "lon": 9.9815377}, {"name": "Dessau-Ro\u00dflau", "description": "Stadt", "lat": 51.843205350000005, "lon": 12.172696020599064}, {"name": "Viersen", "description": "Stadt", "lat": 51.2562118, "lon": 6.3905476}, {"name": "Delmenhorst", "description": "Stadt", "lat": 53.048095, "lon": 8.6286066}, {"name": "Rheine", "description": "Stadt", "lat": 52.2797707, "lon": 7.4373615}, {"name": "Marburg", "description": "Universit\u00e4tsstadt", "lat": 50.8090106, "lon": 8.7704695}, {"name": "L\u00fcneburg", "description": "Hansestadt", "lat": 53.248706, "lon": 10.407855}, {"name": "Dorsten", "description": "Stadt", "lat": 51.6604071, "lon": 6.9647431}, {"name": "Troisdorf", "description": "Stadt", "lat": 50.8153071, "lon": 7.1593271}, {"name": "Wilhelmshaven", "description": "Stadt", "lat": 53.5278793, "lon": 8.106301}, {"name": "Gladbeck", "description": "Stadt", "lat": 51.5718665, "lon": 6.9877343}, {"name": "Landshut", "description": null, "lat": 48.536217, "lon": 12.1516551}, {"name": "Bayreuth", "description": null, "lat": 49.9427202, "lon": 11.5763079}, {"name": "Detmold", "description": "Stadt", "lat": 51.936284, "lon": 8.8791526}, {"name": "Castrop-Rauxel", "description": "Stadt", "lat": 51.5646195, "lon": 7.3106175}, {"name": "Arnsberg", "description": "Stadt", "lat": 51.4002384, "lon": 8.0605908}, {"name": "Brandenburg an der Havel", "description": "Stadt", "lat": 52.4108261, "lon": 12.5497933}, {"name": "Aschaffenburg", "description": null, "lat": 49.9740542, "lon": 9.1493636}, {"name": "Bocholt", "description": "Stadt", "lat": 51.8382715, "lon": 6.6148669}, {"name": "L\u00fcdenscheid", "description": "Stadt", "lat": 51.218137, "lon": 7.6396975}, {"name": "Kempten (Allg\u00e4u)", "description": null, "lat": 47.7267063, "lon": 10.3168835}, {"name": "Fulda", "description": "Stadt", "lat": 50.5542328, "lon": 9.6770448}, {"name": "Celle", "description": "Stadt", "lat": 52.624056, "lon": 10.081052}, {"name": "Aalen", "description": "Stadt", "lat": 48.8375607, "lon": 10.0929593}, {"name": "Lippstadt", "description": "Stadt", "lat": 51.6747074, "lon": 8.347194}, {"name": "Dinslaken", "description": "Stadt", "lat": 51.5623618, "lon": 6.7345106}, {"name": "R\u00fcsselsheim am Main", "description": "Stadt", "lat": 49.9948956, "lon": 8.4118279}, {"name": "Kerpen", "description": "Kolpingstadt", "lat": 50.3008642, "lon": 6.7397609}, {"name": "Herford", "description": "Hansestadt", "lat": 52.1152245, "lon": 8.6711118}, {"name": "Neuwied", "description": "Stadt", "lat": 50.4302393, "lon": 7.466302}, {"name": "Weimar", "description": "Stadt", "lat": 50.9769686, "lon": 11.3275394}, {"name": "Sindelfingen", "description": "Stadt", "lat": 48.7084162, "lon": 9.0035455}, {"name": "Plauen", "description": "Stadt", "lat": 50.4950632, "lon": 12.1346523}, {"name": "Rosenheim", "description": null, "lat": 47.8539273, "lon": 12.127262}, {"name": "Dormagen", "description": "Stadt", "lat": 51.0934389, "lon": 6.8416158}, {"name": "Grevenbroich", "description": "Stadt", "lat": 51.0905783, "lon": 6.5835365}, {"name": "Neubrandenburg", "description": "Vier-Tore-Stadt", "lat": 53.5574458, "lon": 13.2602781}, {"name": "Friedrichshafen", "description": "Stadt", "lat": 47.6500279, "lon": 9.4800858}, {"name": "Schw\u00e4bisch Gm\u00fcnd", "description": "Stadt", "lat": 48.7999036, "lon": 9.7977584}, {"name": "Herten", "description": "Stadt", "lat": 51.5942009, "lon": 7.1368071}, {"name": "Offenburg", "description": "Stadt", "lat": 48.4695984, "lon": 7.9429235}, {"name": "Bergheim", "description": "Stadt", "lat": 50.9540457, "lon": 6.6410004}, {"name": "Neu-Ulm", "description": "GKSt", "lat": 48.3953489, "lon": 10.0005211}, {"name": "Garbsen", "description": "Stadt", "lat": 52.4276606, "lon": 9.6005102}, {"name": "Wesel", "description": "Stadt", "lat": 51.6576909, "lon": 6.617087}, {"name": "H\u00fcrth", "description": "Stadt", "lat": 50.8807379, "lon": 6.876568}, {"name": "Euskirchen", "description": "Stadt", "lat": 50.66129, "lon": 6.7871681}, {"name": "Unna", "description": "Stadt", "lat": 51.5348835, "lon": 7.689014}, {"name": "Greifswald", "description": "Universit\u00e4ts- und Hansestadt", "lat": 54.095791, "lon": 13.3815238}, {"name": "Langenfeld (Rheinland)", "description": "Stadt", "lat": 51.1008952, "lon": 6.9459377}, {"name": "Stralsund", "description": "Hansestadt", "lat": 54.3096314, "lon": 13.0820846}, {"name": "G\u00f6ppingen", "description": "Stadt", "lat": 48.7031377, "lon": 9.6541116}, {"name": "Frankfurt (Oder)", "description": "Stadt", "lat": 52.3412273, "lon": 14.549452}, {"name": "Hameln", "description": "Stadt", "lat": 52.1039941, "lon": 9.3561569}, {"name": "Meerbusch", "description": "Stadt", "lat": 51.2652237, "lon": 6.6760958}, {"name": "Baden-Baden", "description": "Stadt", "lat": 48.7610716, "lon": 8.239959}, {"name": "Lingen (Ems)", "description": "Stadt", "lat": 52.5224659, "lon": 7.316584}, {"name": "G\u00f6rlitz", "description": "Stadt", "lat": 51.1563185, "lon": 14.991018}, {"name": "Sankt Augustin", "description": "Stadt", "lat": 50.7752776, "lon": 7.1895507}, {"name": "Stolberg (Rhld.)", "description": "Kupferstadt", "lat": 50.7702908, "lon": 6.2295504}, {"name": "Pulheim", "description": "Stadt", "lat": 50.9979888, "lon": 6.8025409}, {"name": "Eschweiler", "description": "Stadt", "lat": 50.8175029, "lon": 6.2630894}, {"name": "Bad Homburg v. d. H\u00f6he", "description": "Stadt", "lat": 50.2363508, "lon": 8.5980265}, {"name": "Waiblingen", "description": "Stadt", "lat": 48.8325659, "lon": 9.3163822}, {"name": "Langenhagen", "description": "Stadt", "lat": 52.443118, "lon": 9.738994}, {"name": "Hilden", "description": "Stadt", "lat": 51.1674417, "lon": 6.9307271}, {"name": "Nordhorn", "description": "Stadt", "lat": 52.4359731, "lon": 7.0707659}, {"name": "Schweinfurt", "description": null, "lat": 50.0499945, "lon": 10.233302}, {"name": "Wetzlar", "description": "Stadt", "lat": 50.5525346, "lon": 8.5074406}, {"name": "Hattingen", "description": "Stadt", "lat": 51.4007175, "lon": 7.1862486}, {"name": "Bad Salzuflen", "description": "Stadt", "lat": 52.0771518, "lon": 8.7554739}, {"name": "Passau", "description": null, "lat": 48.5748229, "lon": 13.4609744}, {"name": "Neustadt an der Weinstra\u00dfe", "description": "Stadt", "lat": 49.3539802, "lon": 8.1350021}, {"name": "Kleve", "description": "Stadt", "lat": 51.7895571, "lon": 6.1376008}, {"name": "Ahlen", "description": "Stadt", "lat": 51.7627633, "lon": 7.8909086}, {"name": "Frechen", "description": "Stadt", "lat": 50.9096219, "lon": 6.8081935}, {"name": "Wolfenb\u00fcttel", "description": "Stadt", "lat": 52.1625283, "lon": 10.5348215}, {"name": "Bad Kreuznach", "description": "Stadt", "lat": 49.8431642, "lon": 7.8657658}, {"name": "Ibbenb\u00fcren", "description": "Stadt", "lat": 52.2774772, "lon": 7.7151417}, {"name": "Menden (Sauerland)", "description": "Stadt", "lat": 51.43779, "lon": 7.7953822}, {"name": "B\u00f6blingen", "description": "Stadt", "lat": 48.684969, "lon": 9.0113444}, {"name": "Gummersbach", "description": "Stadt", "lat": 51.0277658, "lon": 7.5630545}, {"name": "Rastatt", "description": "Stadt", "lat": 48.8574209, "lon": 8.2088088}, {"name": "Ravensburg", "description": "Stadt", "lat": 47.7811014, "lon": 9.612468}, {"name": "Peine", "description": "Stadt", "lat": 52.3217849, "lon": 10.2349489}, {"name": "Speyer", "description": "Stadt", "lat": 49.3165553, "lon": 8.433615}, {"name": "Elmshorn", "description": "Stadt", "lat": 53.7532486, "lon": 9.6524559}, {"name": "L\u00f6rrach", "description": "Stadt", "lat": 47.6120896, "lon": 7.6607218}, {"name": "Emden", "description": "Stadt", "lat": 53.3670541, "lon": 7.2058304}, {"name": "Goslar", "description": "Stadt", "lat": 51.9059936, "lon": 10.4266284}, {"name": "Willich", "description": "Stadt", "lat": 51.2641433, "lon": 6.5446958}, {"name": "Gronau (Westf.)", "description": "Stadt", "lat": 52.2085731, "lon": 7.0264443}, {"name": "Erftstadt", "description": "Stadt", "lat": 50.8027168, "lon": 6.8031625}, {"name": "Freising", "description": "GKSt", "lat": 48.4008273, "lon": 11.7439565}, {"name": "Heidenheim an der Brenz", "description": "Stadt", "lat": 48.6767637, "lon": 10.152923}, {"name": "Rheda-Wiedenbr\u00fcck", "description": "Stadt", "lat": 51.8428202, "lon": 8.2985615}, {"name": "Leonberg", "description": "Stadt", "lat": 48.8012983, "lon": 9.0150026}, {"name": "Straubing", "description": null, "lat": 48.8819801, "lon": 12.569716}, {"name": "Bad Oeynhausen", "description": "Stadt", "lat": 52.2014399, "lon": 8.7981244}, {"name": "Singen (Hohentwiel)", "description": "Stadt", "lat": 47.7617515, "lon": 8.8348709}, {"name": "Bergkamen", "description": "Stadt", "lat": 51.6149389, "lon": 7.6362876}, {"name": "Lahr/Schwarzwald", "description": "Stadt", "lat": 48.338896, "lon": 7.8710825}, {"name": "Frankenthal (Pfalz)", "description": "Stadt", "lat": 49.5445804, "lon": 8.3540061}, {"name": "Bornheim", "description": "Stadt", "lat": 50.7627913, "lon": 6.9890508}, {"name": "Cuxhaven", "description": "Stadt", "lat": 53.86878, "lon": 8.698286}, {"name": "Stade", "description": "Hansestadt", "lat": 53.599794, "lon": 9.475438}, {"name": "Alsdorf", "description": "Stadt", "lat": 49.8885782, "lon": 6.4643156}, {"name": "Oranienburg", "description": "Stadt", "lat": 52.7529379, "lon": 13.2457591}, {"name": "Landau in der Pfalz", "description": "Stadt", "lat": 49.1982825, "lon": 8.1123441}, {"name": "Dachau", "description": "GKSt", "lat": 48.2592477, "lon": 11.4354419}, {"name": "Soest", "description": "Stadt", "lat": 51.5725501, "lon": 8.1061259}, {"name": "Hennef (Sieg)", "description": "Stadt", "lat": 50.7754417, "lon": 7.2847945}, {"name": "D\u00fclmen", "description": "Stadt", "lat": 51.8283677, "lon": 7.2791406}, {"name": "Melle", "description": "Stadt", "lat": 52.200762, "lon": 8.338667}, {"name": "Oberursel (Taunus)", "description": "Stadt", "lat": 50.2062948, "lon": 8.5461079}, {"name": "Neunkirchen", "description": "Kreisstadt", "lat": 50.5456179, "lon": 8.1025344}, {"name": "Herzogenrath", "description": "Stadt", "lat": 50.8684545, "lon": 6.0950514}, {"name": "Bruchsal", "description": "Stadt", "lat": 49.124118, "lon": 8.5980244}, {"name": "Hof", "description": null, "lat": 50.3219015, "lon": 11.9178807}, {"name": "Albstadt", "description": "Stadt", "lat": 48.233048, "lon": 8.9991483}, {"name": "Rodgau", "description": "Stadt", "lat": 50.0176771, "lon": 8.8853392}, {"name": "Schwerte", "description": "Hansestadt an der Ruhr", "lat": 51.445525, "lon": 7.5674652}, {"name": "Kaufbeuren", "description": null, "lat": 47.8803788, "lon": 10.622246}, {"name": "Gotha", "description": "Stadt", "lat": 50.9494849, "lon": 10.7014435}, {"name": "Filderstadt", "description": "Stadt", "lat": 48.6664, "lon": 9.2199647}, {"name": "Fellbach", "description": "Stadt", "lat": 48.8181556, "lon": 9.278085}, {"name": "Memmingen", "description": null, "lat": 47.9863099, "lon": 10.1808016}, {"name": "B\u00fcnde", "description": "Stadt", "lat": 52.2004727, "lon": 8.5828944}, {"name": "Wittenberg", "description": "Lutherstadt", "lat": 51.8666527, "lon": 12.646761}, {"name": "Br\u00fchl", "description": "Stadt", "lat": 50.8291313, "lon": 6.9037057}, {"name": "Weinheim", "description": "Stadt", "lat": 49.5462349, "lon": 8.6717458}, {"name": "Neustadt am R\u00fcbenberge", "description": "Stadt", "lat": 52.5055135, "lon": 9.4635826}, {"name": "Lehrte", "description": "Stadt", "lat": 52.3749334, "lon": 9.9748557}, {"name": "Falkensee", "description": "Stadt", "lat": 52.5606426, "lon": 13.08824}, {"name": "Rottenburg am Neckar", "description": "Stadt", "lat": 48.47696, "lon": 8.9336788}, {"name": "Pinneberg", "description": "Stadt", "lat": 53.6558152, "lon": 9.8016369}, {"name": "Erkelenz", "description": "Stadt", "lat": 51.080992, "lon": 6.3160684}, {"name": "Bernau bei Berlin", "description": "Stadt", "lat": 52.6787254, "lon": 13.5881114}, {"name": "Kaarst", "description": "Stadt", "lat": 51.226675, "lon": 6.6193924}, {"name": "Wismar", "description": "Hansestadt", "lat": 53.8909832, "lon": 11.4647932}, {"name": "Gifhorn", "description": "Stadt", "lat": 52.4882194, "lon": 10.545304}, {"name": "Bietigheim-Bissingen", "description": "Stadt", "lat": 48.9493243, "lon": 9.1364229}, {"name": "Erkrath", "description": "Fundort des Neanderthalers", "lat": 51.2209866, "lon": 6.9056079}, {"name": "Heinsberg", "description": "Stadt", "lat": 51.0654268, "lon": 6.0984461}, {"name": "Borken", "description": "Stadt", "lat": 51.8444777, "lon": 6.8583277}, {"name": "Monheim am Rhein", "description": "Stadt", "lat": 51.0909476, "lon": 6.8812387}, {"name": "Nettetal", "description": "Stadt", "lat": 51.3155092, "lon": 6.2714171}, {"name": "Aurich", "description": "Stadt", "lat": 53.4695604, "lon": 7.4823808}, {"name": "Weiden i.d.OPf.", "description": null, "lat": 49.6752749, "lon": 12.1631636}, {"name": "Kamen", "description": "Stadt", "lat": 51.5918019, "lon": 7.6616804}, {"name": "Eisenach", "description": "Stadt", "lat": 50.9747134, "lon": 10.3193565}, {"name": "Schw\u00e4bisch Hall", "description": "Stadt", "lat": 49.1123963, "lon": 9.7369047}, {"name": "Amberg", "description": null, "lat": 48.0611033, "lon": 10.6810316}, {"name": "Laatzen", "description": "Stadt", "lat": 52.3077423, "lon": 9.8132829}, {"name": "Homburg", "description": "Kreisstadt", "lat": 49.3181673, "lon": 7.3340336}, {"name": "Dreieich", "description": "Stadt", "lat": 50.011974, "lon": 8.7123912}, {"name": "Ansbach", "description": null, "lat": 49.3028611, "lon": 10.5722288}, {"name": "Kirchheim unter Teck", "description": "Stadt", "lat": 48.6480545, "lon": 9.4510227}, {"name": "Coburg", "description": null, "lat": 50.2582226, "lon": 10.964561}, {"name": "Siegburg", "description": "Stadt", "lat": 50.7928332, "lon": 7.2070774}, {"name": "Germering", "description": "GKSt", "lat": 48.1373576, "lon": 11.3614338}, {"name": "Bensheim", "description": "Stadt", "lat": 49.6977, "lon": 8.6288}, {"name": "Eberswalde", "description": "Stadt", "lat": 52.8350807, "lon": 13.7996542}, {"name": "Wunstorf", "description": "Stadt", "lat": 52.4257979, "lon": 9.4294425}, {"name": "K\u00f6nigswinter", "description": "Stadt", "lat": 50.6739719, "lon": 7.1930989}, {"name": "H\u00fcckelhoven", "description": "Stadt", "lat": 51.0552368, "lon": 6.2247322}, {"name": "N\u00fcrtingen", "description": "Stadt", "lat": 48.6265854, "lon": 9.3365463}, {"name": "Schwabach", "description": null, "lat": 49.3290035, "lon": 11.0210586}, {"name": "Buchholz in der Nordheide", "description": "Stadt", "lat": 53.3333021, "lon": 9.8666653}, {"name": "Buxtehude", "description": "Hansestadt", "lat": 53.4767351, "lon": 9.7003941}, {"name": "Neumarkt i.d.OPf.", "description": "GKSt", "lat": 49.279624, "lon": 11.4594662}, {"name": "Nordhausen", "description": "Stadt", "lat": 51.5051574, "lon": 10.7925317}, {"name": "Freiberg", "description": "Stadt", "lat": 50.9169415, "lon": 13.3428889}, {"name": "Pirmasens", "description": "Stadt", "lat": 49.1996961, "lon": 7.6087847}, {"name": "Schorndorf", "description": "Stadt", "lat": 48.8055169, "lon": 9.5272665}, {"name": "Ahaus", "description": "Stadt", "lat": 52.0761541, "lon": 7.004876}, {"name": "Lemgo", "description": "Stadt", "lat": 52.0280674, "lon": 8.9012894}, {"name": "Leinfelden-Echterdingen", "description": "Stadt", "lat": 48.6901796, "lon": 9.1525725}, {"name": "Hofheim am Taunus", "description": "Kreisstadt", "lat": 50.09494, "lon": 8.42285}, {"name": "V\u00f6lklingen", "description": "Stadt", "lat": 49.2522866, "lon": 6.859519}, {"name": "L\u00f6hne", "description": "Stadt", "lat": 52.1990346, "lon": 8.7141587}, {"name": "Halberstadt", "description": "Stadt", "lat": 51.8953514, "lon": 11.0520563}, {"name": "Langen (Hessen)", "description": "Stadt", "lat": 49.9927036, "lon": 8.6671682}, {"name": "Ostfildern", "description": "Stadt", "lat": 48.7178603, "lon": 9.2630693}, {"name": "Ettlingen", "description": "Stadt", "lat": 48.9414188, "lon": 8.4076347}, {"name": "Maintal", "description": "Stadt", "lat": 50.1438711, "lon": 8.8371266}, {"name": "Freital", "description": "Stadt", "lat": 51.016265, "lon": 13.6530329}, {"name": "Niederkassel", "description": "Stadt", "lat": 50.8137102, "lon": 7.0351942}, {"name": "Neu-Isenburg", "description": "Stadt", "lat": 50.0464196, "lon": 8.6717748}, {"name": "Pirna", "description": "Stadt", "lat": 50.9616923, "lon": 13.9386643}, {"name": "Mettmann", "description": "Stadt", "lat": 51.2527778, "lon": 6.9777778}, {"name": "Wei\u00dfenfels", "description": "Stadt", "lat": 51.1999793, "lon": 11.9667857}, {"name": "Ilmenau", "description": "Stadt", "lat": 50.6867695, "lon": 10.9142385}, {"name": "K\u00f6nigs Wusterhausen", "description": "Stadt", "lat": 52.2994511, "lon": 13.6244389}, {"name": "Stendal", "description": "Hansestadt", "lat": 52.6050782, "lon": 11.8594279}, {"name": "Papenburg", "description": "Stadt", "lat": 53.0822606, "lon": 7.3928398}, {"name": "W\u00fcrselen", "description": "Stadt", "lat": 50.8178682, "lon": 6.1341108}, {"name": "Kamp-Lintfort", "description": "Stadt", "lat": 51.5017981, "lon": 6.547923}, {"name": "Kehl", "description": "Stadt", "lat": 48.5728929, "lon": 7.8109768}, {"name": "Wesseling", "description": "Stadt", "lat": 50.8247166, "lon": 6.9810852}, {"name": "Greven", "description": "Stadt", "lat": 52.0929254, "lon": 7.6120326}, {"name": "F\u00fcrstenfeldbruck", "description": "GKSt", "lat": 48.1794705, "lon": 11.2547202}, {"name": "Backnang", "description": "Stadt", "lat": 48.9470756, "lon": 9.4297925}, {"name": "Bautzen / Budy\u0161in", "description": "Stadt", "lat": 51.1813907, "lon": 14.4275735}, {"name": "Haltern am See", "description": "Stadt", "lat": 51.7430516, "lon": 7.187221}, {"name": "Bitterfeld-Wolfen", "description": "Stadt", "lat": 51.6425032, "lon": 12.3076334}, {"name": "Warendorf", "description": "Stadt", "lat": 51.9532449, "lon": 7.9912335}, {"name": "Tuttlingen", "description": "Stadt", "lat": 47.9844315, "lon": 8.8186606}, {"name": "Beckum", "description": "Stadt", "lat": 51.7555148, "lon": 8.041135}, {"name": "Cloppenburg", "description": "Stadt", "lat": 52.8461339, "lon": 8.0438783}, {"name": "Coesfeld", "description": "Stadt", "lat": 51.9458943, "lon": 7.1691108}, {"name": "Erding", "description": "GKSt", "lat": 48.3064441, "lon": 11.9076579}, {"name": "Suhl", "description": "Stadt", "lat": 50.6086518, "lon": 10.6926437}, {"name": "Sinsheim", "description": "Stadt", "lat": 49.2553, "lon": 8.87722}, {"name": "M\u00fchlhausen/Th\u00fcringen", "description": "Stadt", "lat": 51.2094255, "lon": 10.4589044}, {"name": "Emsdetten", "description": "Stadt", "lat": 52.174687, "lon": 7.5301756}, {"name": "Limburg a. d. Lahn", "description": "Kreisstadt", "lat": 50.3880781, "lon": 8.0635614}, {"name": "Winsen (Luhe)", "description": "Stadt", "lat": 53.3636474, "lon": 10.2059206}, {"name": "Ingelheim am Rhein", "description": "Stadt", "lat": 49.9752749, "lon": 8.0547274}, {"name": "Porta Westfalica", "description": "Stadt", "lat": 52.2394431, "lon": 8.924762}, {"name": "Voerde (Niederrhein)", "description": "Stadt", "lat": 51.5975224, "lon": 6.6811994}, {"name": "Crailsheim", "description": "Stadt", "lat": 49.1365626, "lon": 10.0720195}, {"name": "Meppen", "description": "Stadt", "lat": 52.6947452, "lon": 7.2909824}, {"name": "Bad Vilbel", "description": "Stadt", "lat": 50.19339, "lon": 8.74918}, {"name": "Deggendorf", "description": "GKSt", "lat": 48.8333535, "lon": 12.96205}, {"name": "Goch", "description": "Stadt", "lat": 51.6755765, "lon": 6.1593045}, {"name": "Steinfurt", "description": "Stadt", "lat": 52.138683, "lon": 7.3678356}, {"name": "M\u00f6rfelden-Walldorf", "description": "Stadt", "lat": 49.9923836, "lon": 8.5622468}, {"name": "Lage", "description": "Stadt", "lat": 51.9914084, "lon": 8.7919583}, {"name": "Dietzenbach", "description": "Kreisstadt", "lat": 50.0171926, "lon": 8.784277}, {"name": "Datteln", "description": "Stadt", "lat": 51.651468, "lon": 7.3385906}, {"name": "Leer (Ostfriesland)", "description": "Stadt", "lat": 53.2332168, "lon": 7.4567555}, {"name": "St. Ingbert", "description": "Stadt", "lat": 49.2788378, "lon": 7.1156707}, {"name": "Balingen", "description": "Stadt", "lat": 48.2737512, "lon": 8.8557862}, {"name": "Barsinghausen", "description": "Stadt", "lat": 52.30223, "lon": 9.4623741}, {"name": "Saarlouis", "description": "Kreisstadt", "lat": 49.3164661, "lon": 6.749846}, {"name": "Kempen", "description": "Stadt", "lat": 51.3642126, "lon": 6.4195011}, {"name": "Seelze", "description": "Stadt", "lat": 52.3964639, "lon": 9.594287}, {"name": "Merseburg", "description": "Stadt", "lat": 51.3564413, "lon": 11.996148}, {"name": "Wermelskirchen", "description": "Stadt", "lat": 51.1406481, "lon": 7.2156901}, {"name": "Wedel", "description": "Stadt", "lat": 53.5810226, "lon": 9.7038772}, {"name": "Zweibr\u00fccken", "description": "Stadt", "lat": 49.248655, "lon": 7.3641981}, {"name": "Geldern", "description": "Stadt", "lat": 51.5169736, "lon": 6.3228189}, {"name": "Ahrensburg", "description": "Stadt", "lat": 53.6736529, "lon": 10.2358999}, {"name": "Viernheim", "description": "Stadt", "lat": 49.5401213, "lon": 8.5785313}, {"name": "Biberach an der Ri\u00df", "description": "Stadt", "lat": 48.0984413, "lon": 9.7899938}, {"name": "Korschenbroich", "description": "Stadt", "lat": 51.1902651, "lon": 6.5143539}, {"name": "Kornwestheim", "description": "Stadt", "lat": 48.8611498, "lon": 9.1873875}, {"name": "Vechta", "description": "Stadt", "lat": 52.7310691, "lon": 8.2873162}, {"name": "Uelzen", "description": "Hansestadt", "lat": 52.9666845, "lon": 10.5584863}, {"name": "Hemer", "description": "Stadt", "lat": 51.3854116, "lon": 7.7661798}, {"name": "Rheinfelden (Baden)", "description": "Stadt", "lat": 47.5605924, "lon": 7.7861959}, {"name": "Bad Nauheim", "description": "Stadt", "lat": 50.3681107, "lon": 8.7473608}, {"name": "Radebeul", "description": "Stadt", "lat": 51.0999765, "lon": 13.6767995}, {"name": "Schwedt/Oder", "description": "Stadt", "lat": 53.0586366, "lon": 14.2840858}, {"name": "Forchheim", "description": "GKSt", "lat": 49.7187319, "lon": 11.0595749}, {"name": "J\u00fclich", "description": "Stadt", "lat": 50.9220931, "lon": 6.3611015}, {"name": "Lampertheim", "description": "Stadt", "lat": 49.6239449, "lon": 8.4093474}, {"name": "Herrenberg", "description": "Stadt", "lat": 48.5963819, "lon": 8.8702368}, {"name": "Achim", "description": "Stadt", "lat": 53.0120987, "lon": 9.0360486}, {"name": "Delbr\u00fcck", "description": "Stadt", "lat": 51.7649178, "lon": 8.5594953}, {"name": "F\u00fcrstenwalde/Spree", "description": "Stadt", "lat": 52.3580209, "lon": 14.064985}, {"name": "Geesthacht", "description": "Stadt", "lat": 53.4374683, "lon": 10.3678235}, {"name": "Radolfzell am Bodensee", "description": "Stadt", "lat": 47.7372802, "lon": 8.9702755}, {"name": "Nienburg (Weser)", "description": "Stadt", "lat": 52.6410849, "lon": 9.2181918}, {"name": "Naumburg (Saale)", "description": "Stadt", "lat": 51.1525648, "lon": 11.8099186}, {"name": "Itzehoe", "description": "Stadt", "lat": 53.919448, "lon": 9.5172441}, {"name": "Emmerich am Rhein", "description": "Stadt", "lat": 51.8322137, "lon": 6.2428283}, {"name": "Bernburg (Saale)", "description": "Stadt", "lat": 51.7930788, "lon": 11.7391606}, {"name": "Georgsmarienh\u00fctte", "description": "Stadt", "lat": 52.2, "lon": 8.05}, {"name": "Wernigerode", "description": "Stadt", "lat": 51.8344172, "lon": 10.7862526}, {"name": "Oer-Erkenschwick", "description": "Stadt", "lat": 51.6398512, "lon": 7.2605914}, {"name": "Neuruppin", "description": "Stadt", "lat": 52.9243859, "lon": 12.8092919}, {"name": "Bramsche", "description": "Stadt", "lat": 52.4075184, "lon": 7.9791742}, {"name": "Geestland", "description": "Stadt", "lat": 53.6291019, "lon": 8.771899546032046}, {"name": "Altenburg", "description": "Stadt", "lat": 50.9852411, "lon": 12.4340988}, {"name": "Hoyerswerda / Wojerecy", "description": "Stadt", "lat": 51.4333103, "lon": 14.250083}, {"name": "Burgdorf", "description": "Stadt", "lat": 52.4438008, "lon": 10.0078364}, {"name": "Kreuztal", "description": "Stadt", "lat": 50.9598627, "lon": 7.9896202}, {"name": "Gevelsberg", "description": "Stadt", "lat": 51.3207417, "lon": 7.3404792}, {"name": "Friedberg (Hessen)", "description": "Kreisstadt", "lat": 50.3352682, "lon": 8.7539306}, {"name": "Rheinberg", "description": "Stadt", "lat": 51.5458979, "lon": 6.6014097}, {"name": "Weil am Rhein", "description": "Stadt", "lat": 47.5932802, "lon": 7.6116133}, {"name": "Werl", "description": "Stadt", "lat": 51.5533457, "lon": 7.9155558}, {"name": "Lohmar", "description": "Stadt", "lat": 50.8402243, "lon": 7.2127276}, {"name": "Walsrode", "description": "Stadt", "lat": 52.8625395, "lon": 9.5883023}, {"name": "Neuburg a.d.Donau", "description": "GKSt", "lat": 48.7371951, "lon": 11.1795268}, {"name": "Taunusstein", "description": "Stadt", "lat": 50.1390989, "lon": 8.1503316}, {"name": "Bad Hersfeld", "description": "Kreisstadt", "lat": 50.8604177, "lon": 9.6767709}, {"name": "Einbeck", "description": "Stadt", "lat": 51.8185067, "lon": 9.8678465}, {"name": "Osterholz-Scharmbeck", "description": "Stadt", "lat": 53.2281763, "lon": 8.7948239}, {"name": "Friedberg", "description": "St", "lat": 50.3352682, "lon": 8.7539306}, {"name": "Haan", "description": "Stadt", "lat": 51.1954956, "lon": 7.0085328}, {"name": "Rendsburg", "description": "Stadt", "lat": 54.3000225, "lon": 9.6516356}, {"name": "Ennepetal", "description": "Stadt der Kluterth\u00f6hle", "lat": 51.2967192, "lon": 7.3693335}, {"name": "Rietberg", "description": "Stadt", "lat": 51.8074106, "lon": 8.4286614}, {"name": "Andernach", "description": "Stadt", "lat": 50.4391924, "lon": 7.4023145}, {"name": "Sch\u00f6nebeck (Elbe)", "description": "Stadt", "lat": 52.0205998, "lon": 11.7383277}, {"name": "Schwandorf", "description": "GKSt", "lat": 49.3261854, "lon": 12.1092708}, {"name": "Gaggenau", "description": "Stadt", "lat": 48.8030291, "lon": 8.3201799}, {"name": "Bretten", "description": "Stadt", "lat": 49.0366265, "lon": 8.7068077}, {"name": "Merzig", "description": "Kreisstadt", "lat": 49.4427023, "lon": 6.6374902}, {"name": "Meschede", "description": "Kreis- und  Hochschulstadt", "lat": 51.3436532, "lon": 8.2859257}, {"name": "Werne", "description": "Stadt", "lat": 51.66268, "lon": 7.6355052}, {"name": "Oelde", "description": "Stadt", "lat": 51.8260823, "lon": 8.1453352}, {"name": "Landsberg am Lech", "description": "GKSt", "lat": 48.0497474, "lon": 10.8768728}, {"name": "Unterschlei\u00dfheim", "description": "St", "lat": 48.2730686, "lon": 11.5702716}, {"name": "Waltrop", "description": "Stadt", "lat": 51.6237456, "lon": 7.400959}, {"name": "G\u00fcstrow", "description": "Barlachstadt", "lat": 53.793587, "lon": 12.1764906}, {"name": "M\u00fchlheim am Main", "description": "Stadt", "lat": 50.1080582, "lon": 8.8467138}, {"name": "Ludwigsfelde", "description": "Stadt", "lat": 52.3016096, "lon": 13.2610163}, {"name": "Winnenden", "description": "Stadt", "lat": 48.8754571, "lon": 9.3978478}, {"name": "Vaihingen an der Enz", "description": "Stadt", "lat": 48.9321398, "lon": 8.9568316}, {"name": "Northeim", "description": "Stadt", "lat": 51.705401, "lon": 9.9972782}, {"name": "T\u00f6nisvorst", "description": "Stadt", "lat": 51.3167, "lon": 6.45}, {"name": "Geislingen an der Steige", "description": "Stadt", "lat": 48.6218033, "lon": 9.8372796}, {"name": "Springe", "description": "Stadt", "lat": 52.2099318, "lon": 9.5581577}, {"name": "B\u00fchl", "description": "Stadt", "lat": 48.6945066, "lon": 8.134423}, {"name": "R\u00f6srath", "description": "Stadt", "lat": 50.8963758, "lon": 7.1825445}, {"name": "Idar-Oberstein", "description": "Stadt", "lat": 49.7107134, "lon": 7.3136563}, {"name": "Riesa", "description": "Stadt", "lat": 51.3038241, "lon": 13.308828}, {"name": "Saalfeld/Saale", "description": "Stadt", "lat": 50.6479143, "lon": 11.3610041}, {"name": "Kelkheim (Taunus)", "description": "Stadt", "lat": 50.1344038, "lon": 8.4531845}, {"name": "Mei\u00dfen", "description": "Stadt", "lat": 51.1630871, "lon": 13.4704939}, {"name": "Emmendingen", "description": "Stadt", "lat": 48.1206565, "lon": 7.850993}, {"name": "Mechernich", "description": "Stadt", "lat": 50.5909999, "lon": 6.6525479}, {"name": "R\u00f6dermark", "description": "Stadt", "lat": 49.9798913, "lon": 8.8088274}, {"name": "H\u00f6xter", "description": "Stadt", "lat": 51.7938902, "lon": 9.348855}, {"name": "Hattersheim am Main", "description": "Stadt", "lat": 50.056, "lon": 8.4819}, {"name": "Schwelm", "description": "Stadt", "lat": 51.2841166, "lon": 7.2924712}, {"name": "Reinbek", "description": "Stadt", "lat": 53.5098898, "lon": 10.2511001}, {"name": "Kevelaer", "description": "Stadt", "lat": 51.5802996, "lon": 6.2456273}, {"name": "Verden (Aller)", "description": "Stadt", "lat": 52.94106755, "lon": 9.235471627440539}, {"name": "Geilenkirchen", "description": "Stadt", "lat": 50.963605, "lon": 6.1199802}, {"name": "K\u00f6nigsbrunn", "description": "St", "lat": 48.2679546, "lon": 10.8883816}, {"name": "Zeitz", "description": "Stadt", "lat": 51.0491637, "lon": 12.1349991}, {"name": "Baunatal", "description": "Stadt", "lat": 51.2550775, "lon": 9.4119007}, {"name": "Grimma", "description": "Stadt", "lat": 51.2383379, "lon": 12.7287511}, {"name": "Arnstadt", "description": "Stadt", "lat": 50.8349097, "lon": 10.9461479}, {"name": "Griesheim", "description": "Stadt", "lat": 49.8615899, "lon": 8.5762043}, {"name": "Leichlingen (Rheinland)", "description": "Bl\u00fctenstadt", "lat": null, "lon": null}, {"name": "Neukirchen-Vluyn", "description": "Stadt", "lat": 51.4413742, "lon": 6.5467641}, {"name": "Olching", "description": "St", "lat": 48.2077801, "lon": 11.3278779}, {"name": "Baesweiler", "description": "Stadt", "lat": 50.9074568, "lon": 6.1826282}, {"name": "Lohne (Oldenburg)", "description": "Stadt", "lat": 52.665257, "lon": 8.2363523}, {"name": "Teltow", "description": "Stadt", "lat": 52.4016457, "lon": 13.2644532}, {"name": "Sundern (Sauerland)", "description": "Stadt", "lat": 51.329832, "lon": 8.0072645}, {"name": "Strausberg", "description": "Stadt", "lat": 52.55889415, "lon": 13.904248060716784}, {"name": "Bad Neuenahr-Ahrweiler", "description": "Stadt", "lat": 50.5444551, "lon": 7.1186671}, {"name": "Heppenheim (Bergstra\u00dfe)", "description": "Kreisstadt", "lat": 49.64999, "lon": 8.66768}, {"name": "Wangen im Allg\u00e4u", "description": "Stadt", "lat": 47.6856552, "lon": 9.8342247}, {"name": "Butzbach", "description": "Friedrich-Ludwig-Weidig-Stadt", "lat": 50.42614015, "lon": 8.653972819926498}, {"name": "Schlo\u00df Holte-Stukenbrock", "description": "Stadt", "lat": 51.9017108, "lon": 8.6353438}, {"name": "Ehingen (Donau)", "description": "Stadt", "lat": 48.2828519, "lon": 9.7262175}, {"name": "Overath", "description": "Stadt", "lat": 50.9320015, "lon": 7.2839042}, {"name": "Wetter (Ruhr)", "description": "Stadt", "lat": 51.3879463, "lon": 7.3951553}, {"name": "Hamminkeln", "description": "Stadt", "lat": 51.7306922, "lon": 6.590865}, {"name": "Wegberg", "description": "Stadt", "lat": 51.1423588, "lon": 6.2776865}, {"name": "Leimen", "description": "Stadt", "lat": 49.3491417, "lon": 8.6909951}, {"name": "Weinstadt", "description": "Stadt", "lat": 48.8085568, "lon": 9.3774813}, {"name": "Rheinbach", "description": "Stadt", "lat": 50.6256808, "lon": 6.9491436}, {"name": "Pfaffenhofen a.d.Ilm", "description": "St", "lat": 48.5296743, "lon": 11.5084954}, {"name": "Hohen Neuendorf", "description": "Stadt", "lat": 52.6732755, "lon": 13.2807255}, {"name": "Wiesloch", "description": "Stadt", "lat": 49.2942599, "lon": 8.698707}, {"name": "Werder (Havel)", "description": "Stadt", "lat": 52.3715809, "lon": 12.9329125}, {"name": "Selm", "description": "Stadt", "lat": 51.7005549, "lon": 7.468614}, {"name": "Achern", "description": "Stadt", "lat": 48.6300161, "lon": 8.0735581}, {"name": "M\u00fchlacker", "description": "Stadt", "lat": 48.9487272, "lon": 8.8492931}, {"name": "Hennigsdorf", "description": "Stadt", "lat": 52.6375777, "lon": 13.2057511}, {"name": "Gro\u00df-Gerau", "description": "Stadt", "lat": 49.914, "lon": 8.4657}, {"name": "Heiligenhaus", "description": "Stadt", "lat": 51.32658, "lon": 6.9710401}, {"name": "Remseck am Neckar", "description": "Stadt", "lat": 48.8727053, "lon": 9.2735947}, {"name": "Neckarsulm", "description": "Stadt", "lat": 49.191133, "lon": 9.2248391}, {"name": "Aschersleben", "description": "Stadt", "lat": 51.7559549, "lon": 11.462134}, {"name": "Lauf a.d.Pegnitz", "description": "St", "lat": 49.5118126, "lon": 11.2813381}, {"name": "Nordenham", "description": "Stadt", "lat": 53.4973636, "lon": 8.4820227}, {"name": "Bingen am Rhein", "description": "Stadt", "lat": 49.9675456, "lon": 7.8944}, {"name": "Weiterstadt", "description": "Stadt", "lat": 49.9178, "lon": 8.5924}, {"name": "Zirndorf", "description": "St", "lat": 49.445762, "lon": 10.9560462}, {"name": "L\u00fcbbecke", "description": "Stadt", "lat": 52.3027209, "lon": 8.6183054}, {"name": "Lindau (Bodensee)", "description": "GKSt", "lat": 47.550753, "lon": 9.6926624}, {"name": "Harsewinkel", "description": "Die M\u00e4hdrescherstadt", "lat": 51.9617153, "lon": 8.2252425}, {"name": "Kulmbach", "description": "GKSt", "lat": 50.1008448, "lon": 11.4479149}, {"name": "Bad Honnef", "description": "Stadt", "lat": 50.6448582, "lon": 7.2272534}, {"name": "Friedrichsdorf", "description": "Stadt", "lat": 50.2620906, "lon": 8.6248898}, {"name": "Schleswig", "description": "Stadt", "lat": 54.51851, "lon": 9.5653284}, {"name": "Geretsried", "description": "St", "lat": 47.8646925, "lon": 11.479351}, {"name": "Idstein", "description": "Hochschulstadt", "lat": 50.2212764, "lon": 8.269554}, {"name": "Horb am Neckar", "description": "Stadt", "lat": 48.4447943, "lon": 8.6914794}, {"name": "Verl", "description": "Stadt", "lat": 51.8830037, "lon": 8.5093149}, {"name": "Helmstedt", "description": "Stadt", "lat": 52.2089226, "lon": 11.002888241720438}, {"name": "Rinteln", "description": "Stadt", "lat": 52.1873798, "lon": 9.0804584}, {"name": "Brilon", "description": "Stadt", "lat": 51.3955721, "lon": 8.5677743}, {"name": "\u00d6hringen", "description": "Stadt", "lat": 49.2005034, "lon": 9.5024397}, {"name": "Rottweil", "description": "Stadt", "lat": 48.1678244, "lon": 8.626979}, {"name": "Obertshausen", "description": "Stadt", "lat": 50.0731304, "lon": 8.8732839}, {"name": "Weingarten", "description": "Stadt", "lat": 47.8075299, "lon": 9.6431145}, {"name": "St. Wendel", "description": "Kreisstadt", "lat": 49.4669906, "lon": 7.1696192}, {"name": "Roth", "description": "St", "lat": 49.2458557, "lon": 11.0909712}, {"name": "Ellwangen (Jagst)", "description": "Stadt", "lat": 48.9615975, "lon": 10.131975}, {"name": "Wiehl", "description": "Stadt", "lat": 50.9478489, "lon": 7.5530059}, {"name": "Delitzsch", "description": "Stadt", "lat": 51.5255661, "lon": 12.342857}, {"name": "Ditzingen", "description": "Stadt", "lat": 48.8263983, "lon": 9.0658446}, {"name": "Stutensee", "description": "Stadt", "lat": 49.0895249, "lon": 8.4856806}, {"name": "L\u00fcdinghausen", "description": "Stadt", "lat": 51.7717757, "lon": 7.444639}, {"name": "Sangerhausen", "description": "Stadt", "lat": 51.4729797, "lon": 11.2981851}, {"name": "Pfungstadt", "description": "Stadt", "lat": 49.7943, "lon": 8.5877}, {"name": "Espelkamp", "description": "Stadt", "lat": 52.3778041, "lon": 8.6157377}, {"name": "Salzkotten", "description": "Stadt", "lat": 51.6717596, "lon": 8.6068636}, {"name": "Lennestadt", "description": "Stadt", "lat": 51.1245718, "lon": 8.0568953}, {"name": "Petershagen", "description": "Stadt", "lat": 52.3756616, "lon": 8.9668368}, {"name": "Norden", "description": "Stadt", "lat": 53.5942039, "lon": 7.2067435}, {"name": "Waldshut-Tiengen", "description": "Stadt", "lat": 47.6281754, "lon": 8.2408579}, {"name": "Bad Oldesloe", "description": "Stadt", "lat": 53.8096562, "lon": 10.3733692}, {"name": "Meckenheim", "description": "Stadt", "lat": 50.6256627, "lon": 7.0215612}, {"name": "K\u00f6then (Anhalt)", "description": "Stadt", "lat": 51.751033, "lon": 11.973698}, {"name": "Schmallenberg", "description": "Stadt", "lat": 51.1525937, "lon": 8.2836014}, {"name": "Olpe", "description": "Stadt", "lat": 51.029482, "lon": 7.8435278}, {"name": "Sprockh\u00f6vel", "description": "Stadt", "lat": 51.3666572, "lon": 7.2485905}, {"name": "Syke", "description": "Stadt", "lat": 52.9131332, "lon": 8.8198737}, {"name": "Rathenow", "description": "Stadt", "lat": 52.6063703, "lon": 12.3382259}, {"name": "Meiningen", "description": "Stadt", "lat": 50.56761, "lon": 10.4153029}, {"name": "Plettenberg", "description": "Stadt", "lat": 51.2136798, "lon": 7.8745627}, {"name": "Rudolstadt", "description": "Stadt", "lat": 50.7206063, "lon": 11.3401985}, {"name": "Bad Mergentheim", "description": "Stadt", "lat": 49.490532, "lon": 9.7730692}, {"name": "Haren (Ems)", "description": "Stadt", "lat": 52.7905619, "lon": 7.2400267}, {"name": "Zittau", "description": "Stadt", "lat": 50.8960964, "lon": 14.8064807}, {"name": "Herzogenaurach", "description": "St", "lat": 49.5710376, "lon": 10.8815262}, {"name": "Bedburg", "description": "Stadt", "lat": 50.9972161, "lon": 6.5767648}, {"name": "Waldkraiburg", "description": "St", "lat": 48.2061851, "lon": 12.4021839}, {"name": "Ronnenberg", "description": "Stadt", "lat": 52.3166623, "lon": 9.6532075}, {"name": "Markkleeberg", "description": "Stadt", "lat": 51.2785751, "lon": 12.3718819}, {"name": "Riedstadt", "description": "B\u00fcchnerstadt", "lat": 49.8425212, "lon": 8.4829447}, {"name": "Warstein", "description": "Stadt", "lat": 51.4458105, "lon": 8.3536824}, {"name": "Attendorn", "description": "Hansestadt", "lat": 51.1250541, "lon": 7.9010992}, {"name": "Calw", "description": "Stadt", "lat": 48.7142691, "lon": 8.7397624}, {"name": "Eisenh\u00fcttenstadt", "description": "Stadt", "lat": 52.1448863, "lon": 14.6294413}, {"name": "\u00dcbach-Palenberg", "description": "Stadt", "lat": 50.9213799, "lon": 6.1128698}, {"name": "Freudenstadt", "description": "Stadt", "lat": 48.4637727, "lon": 8.4111727}, {"name": "Varel", "description": "Stadt", "lat": 53.395777, "lon": 8.1372149}, {"name": "Sehnde", "description": "Stadt", "lat": 52.3144002, "lon": 9.9647193}, {"name": "J\u00fcchen", "description": "Stadt", "lat": 51.1017138, "lon": 6.5036893}, {"name": "Korbach", "description": "Hansestadt", "lat": 51.2559045, "lon": 8.8426963}, {"name": "Westerstede", "description": "Stadt", "lat": 53.2575197, "lon": 7.9273367}, {"name": "Sta\u00dffurt", "description": "Stadt", "lat": 51.8514515, "lon": 11.5929455}, {"name": "Starnberg", "description": "St", "lat": 47.9986851, "lon": 11.3410791}, {"name": "Limbach-Oberfrohna", "description": "Stadt", "lat": 50.8608138, "lon": 12.7545462}, {"name": "Gelnhausen", "description": "Barbarossastadt", "lat": 50.2043672, "lon": 9.1997516}, {"name": "Husum", "description": "Stadt", "lat": 54.4854137, "lon": 9.0537941}, {"name": "D\u00f6beln", "description": "Stadt", "lat": 51.1167001, "lon": 13.1166999}, {"name": "Mosbach", "description": "Stadt", "lat": 49.3521085, "lon": 9.1460205}, {"name": "Leutkirch im Allg\u00e4u", "description": "Stadt", "lat": 47.8266137, "lon": 10.0228027}, {"name": "Dillenburg", "description": "Oranienstadt", "lat": 50.7404535, "lon": 8.2874957}, {"name": "Gersthofen", "description": "St", "lat": 48.4248151, "lon": 10.8778564}, {"name": "Kaltenkirchen", "description": "Stadt", "lat": 53.8371714, "lon": 9.9614889}, {"name": "Sonneberg", "description": "Stadt", "lat": 50.3575412, "lon": 11.1691714}, {"name": "Netphen", "description": "Stadt", "lat": 50.9125904, "lon": 8.1026183}, {"name": "Hann. M\u00fcnden", "description": "Stadt", "lat": 51.4161908, "lon": 9.6550096}, {"name": "Salzwedel", "description": "Hansestadt", "lat": 52.8528456, "lon": 11.1539699}, {"name": "Weilheim i.OB", "description": "St", "lat": 47.8475207, "lon": 11.1485495}, {"name": "Kitzingen", "description": "GKSt", "lat": 49.7380667, "lon": 10.1601218}, {"name": "Warburg", "description": "Hansestadt", "lat": 51.4886533, "lon": 9.1488385}, {"name": "Nagold", "description": "Stadt", "lat": 48.5512399, "lon": 8.7234942}, {"name": "Wertheim", "description": "Stadt", "lat": 49.7599825, "lon": 9.5166598}, {"name": "Senftenberg/Z\u0142y Komorow", "description": "Stadt", "lat": 51.5191742, "lon": 14.0046541}, {"name": "Quedlinburg", "description": "Welterbestadt", "lat": 51.7855428, "lon": 11.1519933}, {"name": "Vreden", "description": "Stadt", "lat": 52.035862, "lon": 6.8236481}, {"name": "Karben", "description": "Stadt", "lat": 50.2313417, "lon": 8.7717673}, {"name": "Neus\u00e4\u00df", "description": "St", "lat": 48.3928722, "lon": 10.8354535}, {"name": "Bad Kissingen", "description": "GKSt", "lat": 50.1985698, "lon": 10.0746833}, {"name": "\u00dcberlingen", "description": "Stadt", "lat": 47.7664456, "lon": 9.1605106}, {"name": "Friesoythe", "description": "Stadt", "lat": 53.0206088, "lon": 7.8592307}, {"name": "Bad Soden am Taunus", "description": "Stadt", "lat": 50.1517006, "lon": 8.4899671}, {"name": "Senden", "description": "St", "lat": 48.3251884, "lon": 10.0471189}, {"name": "Bad Salzungen", "description": "Stadt", "lat": 50.812318, "lon": 10.2320784}, {"name": "Lengerich", "description": "Stadt", "lat": 52.1887731, "lon": 7.8508691}, {"name": "Laupheim", "description": "Stadt", "lat": 48.230514, "lon": 9.8771587}, {"name": "Stadthagen", "description": "Stadt", "lat": 52.3289688, "lon": 9.2053496}, {"name": "Apolda", "description": "Stadt", "lat": 51.0227878, "lon": 11.5129742}, {"name": "Rotenburg (W\u00fcmme)", "description": "Stadt", "lat": 53.1108906, "lon": 9.4049292}, {"name": "Burg", "description": "Stadt", "lat": 49.9600346, "lon": 6.3512069}, {"name": "Herdecke", "description": "Stadt", "lat": 51.4001119, "lon": 7.4330062}, {"name": "Eisleben", "description": "Lutherstadt", "lat": 51.5283282, "lon": 11.5465911}, {"name": "B\u00fcdingen", "description": "Stadt", "lat": 50.2972353, "lon": 9.0990829}, {"name": "Bad Rappenau", "description": "Stadt", "lat": 49.2393031, "lon": 9.101268}, {"name": "Eschborn", "description": "Stadt", "lat": 50.1504737, "lon": 8.5607767}, {"name": "Metzingen", "description": "Stadt", "lat": 48.5397247, "lon": 9.2831201}, {"name": "Heide", "description": "Stadt", "lat": 54.1948848, "lon": 9.0928251}, {"name": "Quickborn", "description": "Stadt", "lat": 54.0111091, "lon": 9.2114907}, {"name": "Donaueschingen", "description": "Stadt", "lat": 47.9534194, "lon": 8.4959257}, {"name": "Waldkirch", "description": "Stadt", "lat": 48.0939396, "lon": 7.9610142}, {"name": "Eppingen", "description": "Stadt", "lat": 49.1369473, "lon": 8.90956}, {"name": "Versmold", "description": "Stadt", "lat": 52.0416747, "lon": 8.1493878}, {"name": "Aichach", "description": "St", "lat": 48.4591478, "lon": 11.1309953}, {"name": "Halle (Westf.)", "description": "Stadt", "lat": 52.0603847, "lon": 8.3615861}, {"name": "Radevormwald", "description": "Stadt auf der H\u00f6he", "lat": 51.2029228, "lon": 7.3571392}, {"name": "Soltau", "description": "Stadt", "lat": 52.9859666, "lon": 9.8433909}, {"name": "Sonthofen", "description": "St", "lat": 47.5047006, "lon": 10.3061977}, {"name": "Elsdorf", "description": "Stadt", "lat": 50.9371308, "lon": 6.5698302}, {"name": "Bad Krozingen", "description": "Stadt", "lat": 47.9118288, "lon": 7.7033313}, {"name": "Gardelegen", "description": "Hansestadt", "lat": 52.5269433, "lon": 11.3927377}, {"name": "Eislingen/Fils", "description": "Stadt", "lat": 48.6986798, "lon": 9.7065009}, {"name": "G\u00fcnzburg", "description": "GKSt", "lat": 48.4555244, "lon": 10.2766213}, {"name": "M\u00fchldorf a.Inn", "description": "St", "lat": 48.2405007, "lon": 12.5250991}, {"name": "Glauchau", "description": "Stadt", "lat": 50.8199031, "lon": 12.5397873}, {"name": "Xanten", "description": "Stadt", "lat": 51.661519, "lon": 6.4543203}, {"name": "Wagh\u00e4usel", "description": "Stadt", "lat": 49.2485721, "lon": 8.516277}, {"name": "Seligenstadt", "description": "Einhardstadt", "lat": 50.0347055, "lon": 8.9593719}, {"name": "Fl\u00f6rsheim am Main", "description": "Stadt", "lat": 50.0296, "lon": 8.4265}, {"name": "Geseke", "description": "Stadt", "lat": 51.6395322, "lon": 8.512578}, {"name": "Stadtallendorf", "description": "Stadt", "lat": 50.8267933, "lon": 9.0177346}, {"name": "Zossen", "description": "Stadt", "lat": 52.2159073, "lon": 13.4488958}, {"name": "Hockenheim", "description": "Stadt", "lat": 49.3188892, "lon": 8.5475467}, {"name": "Eckernf\u00f6rde", "description": "Stadt", "lat": 54.4716456, "lon": 9.8374947}, {"name": "Schwetzingen", "description": "Stadt", "lat": 49.3832919, "lon": 8.5735135}, {"name": "Traunstein", "description": "GKSt", "lat": 47.8695272, "lon": 12.6484621}, {"name": "B\u00fcren", "description": "Stadt", "lat": 51.5525333, "lon": 8.5591919}, {"name": "Bad Harzburg", "description": "Stadt", "lat": 51.8803224, "lon": 10.5643607}, {"name": "Spremberg/Grodk", "description": "Stadt", "lat": 51.5714513, "lon": 14.3804302}, {"name": "Zerbst/Anhalt", "description": "Stadt", "lat": 51.9640339, "lon": 12.085502}, {"name": "Rees", "description": "Stadt", "lat": 51.7581242, "lon": 6.3956605}, {"name": "Wildeshausen", "description": "Stadt", "lat": 52.897103, "lon": 8.4364342}, {"name": "Puchheim", "description": "St", "lat": 48.1704908, "lon": 11.3526351}, {"name": "Osterode am Harz", "description": "Stadt", "lat": 51.72784, "lon": 10.2508204}, {"name": "Z\u00fclpich", "description": "Stadt", "lat": 50.6922459, "lon": 6.6472694}, {"name": "Germersheim", "description": "Stadt", "lat": 49.2222749, "lon": 8.36659}, {"name": "Schramberg", "description": "Stadt", "lat": 48.225478, "lon": 8.3852168}, {"name": "Waren (M\u00fcritz)", "description": "Stadt", "lat": 53.5156249, "lon": 12.6850606}, {"name": "Sondershausen", "description": "Stadt", "lat": 51.3666041, "lon": 10.8668419}, {"name": "Herborn", "description": "Stadt", "lat": 50.6832181, "lon": 8.3031361}, {"name": "Wipperf\u00fcrth", "description": "Hansestadt", "lat": 51.1155182, "lon": 7.3879068}, {"name": "N\u00f6rdlingen", "description": "GKSt", "lat": 48.8516578, "lon": 10.4885873}, {"name": "H\u00f6rstel", "description": "Stadt", "lat": 52.2973664, "lon": 7.5862462}, {"name": "Traunreut", "description": "St", "lat": 47.9623271, "lon": 12.5924162}, {"name": "Gro\u00df-Umstadt", "description": "Stadt", "lat": 49.86477, "lon": 8.95669}, {"name": "W\u00fclfrath", "description": "Stadt", "lat": 51.2818569, "lon": 7.0328063}, {"name": "Luckenwalde", "description": "Stadt", "lat": 52.0902045, "lon": 13.1741882}, {"name": "M\u00f6ssingen", "description": "Stadt", "lat": 48.4069119, "lon": 9.0602912}, {"name": "Schortens", "description": "Stadt", "lat": 53.5366547, "lon": 7.9467348}, {"name": "Dingolfing", "description": "St", "lat": 48.6300801, "lon": 12.4977434}, {"name": "Bruchk\u00f6bel", "description": "Stadt", "lat": 50.1845, "lon": 8.9369}, {"name": "Wittmund", "description": "Stadt", "lat": 53.5792685, "lon": 7.7815477}, {"name": "Werdau", "description": "Stadt", "lat": 50.7361377, "lon": 12.3763847}, {"name": "Stadtlohn", "description": "Stadt", "lat": 51.9928346, "lon": 6.9173072}, {"name": "Bad Waldsee", "description": "Stadt", "lat": 47.9209556, "lon": 9.7542772}, {"name": "Enger", "description": "Widukindstadt", "lat": 52.1394015, "lon": 8.5588818}, {"name": "Rheinstetten", "description": "Stadt", "lat": 48.968549, "lon": 8.3097117}, {"name": "Schifferstadt", "description": "Stadt", "lat": 49.3858742, "lon": 8.3705675}, {"name": "Meinerzhagen", "description": "Stadt", "lat": 51.1063495, "lon": 7.6408956}, {"name": "Nidderau", "description": "Stadt", "lat": 50.2290263, "lon": 8.8762327}, {"name": "Coswig", "description": "Stadt", "lat": 51.1267305, "lon": 13.5783983}, {"name": "Burgwedel", "description": "Stadt", "lat": 52.5, "lon": 9.86667}, {"name": "Fr\u00f6ndenberg/Ruhr", "description": "Stadt", "lat": 51.4739253, "lon": 7.765505}, {"name": "Lichtenfels", "description": "St", "lat": 50.14568, "lon": 11.06382}, {"name": "Korntal-M\u00fcnchingen", "description": "Stadt", "lat": 48.8432607, "lon": 9.1068611}, {"name": "Ochtrup", "description": "Stadt", "lat": 52.2102308, "lon": 7.188806}, {"name": "Neustrelitz", "description": "Residenzstadt", "lat": 53.3617163, "lon": 13.0630004}, {"name": "Giengen an der Brenz", "description": "Stadt", "lat": 48.6208515, "lon": 10.2442196}, {"name": "Duderstadt", "description": "Stadt", "lat": 51.5123672, "lon": 10.2610699}, {"name": "Telgte", "description": "Stadt", "lat": 51.983522, "lon": 7.784859}, {"name": "Reichenbach im Vogtland", "description": "Stadt", "lat": 50.6219239, "lon": 12.332118300271976}, {"name": "Tettnang", "description": "Stadt", "lat": 47.6716558, "lon": 9.5891158}, {"name": "Schopfheim", "description": "Stadt", "lat": 47.6500525, "lon": 7.8216997}, {"name": "Oberkirch", "description": "Stadt", "lat": 48.5308586, "lon": 8.078657}, {"name": "Greiz", "description": "Stadt", "lat": 50.6477963, "lon": 12.1734848}, {"name": "Holzminden", "description": "Stadt", "lat": 51.828835, "lon": 9.4466591}, {"name": "Blieskastel", "description": "Stadt", "lat": 49.2370918, "lon": 7.2599036}, {"name": "Bad Schwartau", "description": "Stadt", "lat": 53.9196435, "lon": 10.6978692}, {"name": "Donauw\u00f6rth", "description": "GKSt", "lat": 48.7180364, "lon": 10.7807299}, {"name": "Waldbr\u00f6l", "description": "Stadt", "lat": 50.8751813, "lon": 7.6159479}, {"name": "Dillingen a.d.Donau", "description": "GKSt", "lat": 48.577185, "lon": 10.4943532}, {"name": "Leinefelde-Worbis", "description": "Stadt", "lat": 51.41492555000001, "lon": 10.319447163981811}, {"name": "Moosburg a.d.Isar", "description": "St", "lat": 48.4667, "lon": 11.9333}, {"name": "Borna", "description": "Stadt", "lat": 51.1241649, "lon": 12.4999055}, {"name": "Schmalkalden", "description": "Stadt", "lat": 50.7213643, "lon": 10.4510467}, {"name": "Bad Friedrichshall", "description": "Stadt", "lat": 49.2300761, "lon": 9.212604}, {"name": "Dillingen/ Saar", "description": "Stadt", "lat": 49.3552721, "lon": 6.7243197}, {"name": "Sarstedt", "description": "Stadt", "lat": 52.2340379, "lon": 9.8534254}, {"name": "Oschersleben (Bode)", "description": "Stadt", "lat": 52.0266526, "lon": 11.227781}, {"name": "Mayen", "description": "Stadt", "lat": 50.3283544, "lon": 7.2215134}, {"name": "Rhede", "description": "Stadt", "lat": 51.8363135, "lon": 6.696091}, {"name": "Schenefeld", "description": "Stadt", "lat": 54.0484989, "lon": 9.4703368}, {"name": "Ennigerloh", "description": "Stadt", "lat": 51.8359553, "lon": 8.0255988}, {"name": "Gerlingen", "description": "Stadt", "lat": 48.7983947, "lon": 9.0624386}, {"name": "M\u00fcllheim im Markgr\u00e4flerland", "description": "Stadt", "lat": 47.8099613, "lon": 7.6257276}, {"name": "B\u00fcckeburg", "description": "Stadt", "lat": 52.2611037, "lon": 9.0488959}, {"name": "Bad Aibling", "description": "St", "lat": 47.8640504, "lon": 12.0097685}, {"name": "Wittlich", "description": "Stadt", "lat": 49.9850353, "lon": 6.88844}, {"name": "Marsberg", "description": "Stadt", "lat": 51.4602168, "lon": 8.8552071}, {"name": "Aue-Bad Schlema", "description": "Stadt", "lat": 50.6039112, "lon": 12.683981}, {"name": "Torgau", "description": "Stadt", "lat": 51.5581272, "lon": 13.0046538}, {"name": "Haiger", "description": "Stadt", "lat": 50.7420214, "lon": 8.2039451}, {"name": "Bad Pyrmont", "description": "Stadt", "lat": 51.9850503, "lon": 9.2434635}, {"name": "M\u00f6lln", "description": "Stadt", "lat": 53.62892, "lon": 10.6880174}, {"name": "Nauen", "description": "Stadt", "lat": 52.6061065, "lon": 12.8772599}, {"name": "Sulzbach-Rosenberg", "description": "St", "lat": 49.4992468, "lon": 11.7470259}, {"name": "Wassenberg", "description": "Stadt", "lat": 51.1007618, "lon": 6.1561074}, {"name": "Alzey", "description": "Stadt", "lat": 49.7455695, "lon": 8.1150946}, {"name": "Wolfratshausen", "description": "St", "lat": 47.9104632, "lon": 11.4266377}, {"name": "Bad Driburg", "description": "Stadt", "lat": 51.7366427, "lon": 9.0175012}, {"name": "Burghausen", "description": "St", "lat": 48.1588645, "lon": 12.8329419}, {"name": "Sachsenheim", "description": "Stadt", "lat": 48.9654062, "lon": 9.0583956}, {"name": "Hechingen", "description": "Stadt", "lat": 48.3525529, "lon": 8.9642047}, {"name": "Annaberg-Buchholz", "description": "Stadt", "lat": 50.5788781, "lon": 13.0106108}, {"name": "Eschwege", "description": "Kreisstadt", "lat": 51.1733518, "lon": 10.0680632}, {"name": "Heusenstamm", "description": "Stadt", "lat": 50.0537652, "lon": 8.8236013}, {"name": "Kolbermoor", "description": "St", "lat": 47.8556623, "lon": 12.0595795}, {"name": "Bad T\u00f6lz", "description": "St", "lat": 47.7610013, "lon": 11.559607}, {"name": "Weil der Stadt", "description": "Stadt", "lat": 48.7501041, "lon": 8.8707147}, {"name": "Schkeuditz", "description": "Stadt", "lat": 51.3963509, "lon": 12.2216292}, {"name": "Pfullingen", "description": "Stadt", "lat": 48.4656748, "lon": 9.2254982}, {"name": "Haldensleben", "description": "Stadt", "lat": 52.2911243, "lon": 11.4132719}, {"name": "Seesen", "description": "Stadt", "lat": 51.8905566, "lon": 10.1703902}, {"name": "Schneverdingen", "description": "Stadt", "lat": 53.1165973, "lon": 9.7925898}, {"name": "Lebach", "description": "Stadt", "lat": 49.4132377, "lon": 6.9091348}, {"name": "Bad Reichenhall", "description": "GKSt", "lat": 47.7222676, "lon": 12.8760923}, {"name": "S\u00f6mmerda", "description": "Stadt", "lat": 51.1618258, "lon": 11.1174874}, {"name": "Blankenburg (Harz)", "description": "Stadt", "lat": 51.7902676, "lon": 10.9551991}, {"name": "Marktoberdorf", "description": "St", "lat": 47.7780871, "lon": 10.6188796}, {"name": "Bremerv\u00f6rde", "description": "Stadt", "lat": 53.4850249, "lon": 9.1362085}, {"name": "Prenzlau", "description": "Stadt", "lat": 53.3167, "lon": 13.866575}, {"name": "Burscheid", "description": "Stadt", "lat": 51.0824722, "lon": 7.1212314}, {"name": "Wei\u00dfenburg i.Bay.", "description": "GKSt", "lat": 49.0305748, "lon": 10.9718974}, {"name": "Bad Segeberg", "description": "Stadt", "lat": 53.9422672, "lon": 10.3137943}, {"name": "Hemmingen", "description": "Stadt", "lat": 52.3212183, "lon": 9.7454815}, {"name": "Bad Berleburg", "description": "Stadt", "lat": 51.0478493, "lon": 8.3917759}, {"name": "Radeberg", "description": "Stadt", "lat": 51.1151413, "lon": 13.9175257}, {"name": "Bad D\u00fcrkheim", "description": "Stadt", "lat": 49.4632944, "lon": 8.1705063}, {"name": "Hochheim am Main", "description": "Stadt", "lat": 50.0277, "lon": 8.3587}, {"name": "Alzenau", "description": "St", "lat": 50.085868, "lon": 9.0813749}, {"name": "Uetersen", "description": "Stadt", "lat": 53.6851608, "lon": 9.669827}, {"name": "Alfeld (Leine)", "description": "Stadt", "lat": 51.9863077, "lon": 9.8247473}, {"name": "Schwalmstadt", "description": "Konfirmationsstadt", "lat": 50.9128419, "lon": 9.1882126}, {"name": "Glinde", "description": "Stadt", "lat": 53.5411468, "lon": 10.213583}, {"name": "Renningen", "description": "Stadt", "lat": 48.7648163, "lon": 8.9347008}, {"name": "Vellmar", "description": "Stadt", "lat": 51.3622487, "lon": 9.4692331}, {"name": "Bergneustadt", "description": "Stadt", "lat": 51.0207425, "lon": 7.6490729}, {"name": "Illertissen", "description": "St", "lat": 48.221764, "lon": 10.1058969}, {"name": "Kronberg im Taunus", "description": "Stadt", "lat": 50.1907271, "lon": 8.5194693}, {"name": "Hessisch Oldendorf", "description": "Stadt", "lat": 52.1698382, "lon": 9.2506531}, {"name": "Konz", "description": "Stadt", "lat": 49.6984949, "lon": 6.5736454}, {"name": "Lahnstein", "description": "Stadt", "lat": 50.3090305, "lon": 7.6044602}, {"name": "Crimmitschau", "description": "Stadt", "lat": 50.8162378, "lon": 12.3867217}, {"name": "W\u00f6rth am Rhein", "description": "Stadt", "lat": 49.0543232, "lon": 8.2667399}, {"name": "Vlotho", "description": "Stadt", "lat": 52.1664861, "lon": 8.8619172}, {"name": "Parchim", "description": "Stadt", "lat": 53.4258455, "lon": 11.8475244}, {"name": "P\u00fcttlingen", "description": "Stadt", "lat": 49.287307, "lon": 6.8827786}, {"name": "Buchen (Odenwald)", "description": "Stadt", "lat": 49.5222974, "lon": 9.3243187}, {"name": "Schrobenhausen", "description": "St", "lat": 48.5613407, "lon": 11.2654488}, {"name": "Pohlheim", "description": "Stadt", "lat": 50.5165524, "lon": 8.7345921}, {"name": "Frankenberg (Eder)", "description": "Philipp-Soldan-Stadt", "lat": 51.0771933, "lon": 8.7908312}, {"name": "Sigmaringen", "description": "Stadt", "lat": 48.0855844, "lon": 9.2178879}, {"name": "Gro\u00dfenhain", "description": "Stadt", "lat": 51.2911845, "lon": 13.5317153}, {"name": "Vilshofen an der Donau", "description": "St", "lat": 48.633762, "lon": 13.1868461}, {"name": "Freilassing", "description": "St", "lat": 47.8409723, "lon": 12.9823914}, {"name": "Bobingen", "description": "St", "lat": 48.2687941, "lon": 10.8337852}, {"name": "Oberasbach", "description": "St", "lat": 49.4303112, "lon": 10.967555}, {"name": "Nidda", "description": "Stadt", "lat": 50.4267, "lon": 9.0286}, {"name": "Werdohl", "description": "Stadt", "lat": 51.257732, "lon": 7.7642148}, {"name": "Trossingen", "description": "Stadt", "lat": 48.07506, "lon": 8.6362987}, {"name": "Freudenberg", "description": "Stadt", "lat": 50.8983662, "lon": 7.8773745}, {"name": "Bad Saulgau", "description": "Stadt", "lat": 48.0158071, "lon": 9.5010309}, {"name": "Forst (Lausitz)/Bar\u0161\u0107 (\u0141u\u017eyca)", "description": "Stadt", "lat": 51.7438586, "lon": 14.6455395}, {"name": "Damme", "description": "Stadt", "lat": 52.5212651, "lon": 8.1957974}, {"name": "Bad W\u00f6rishofen", "description": "St", "lat": 48.0059852, "lon": 10.5921263}, {"name": "Bexbach", "description": "Stadt", "lat": 49.347299, "lon": 7.2548948}, {"name": "Bad S\u00e4ckingen", "description": "Stadt", "lat": 47.5525538, "lon": 7.9495387}, {"name": "Diepholz", "description": "Stadt", "lat": 52.6113677, "lon": 8.372661}, {"name": "Cham", "description": "St", "lat": 49.2178194, "lon": 12.6663832}, {"name": "Babenhausen", "description": "Stadt", "lat": 49.9562183, "lon": 8.9460279}, {"name": "Garching b.M\u00fcnchen", "description": "St", "lat": 48.2513878, "lon": 11.6509662}, {"name": "Bad M\u00fcnstereifel", "description": "Stadt", "lat": 50.5545674, "lon": 6.7636511}, {"name": "Auerbach/Vogtl.", "description": "Stadt", "lat": 50.5087816, "lon": 12.400153}, {"name": "Bad M\u00fcnder am Deister", "description": "Stadt", "lat": 52.1952894, "lon": 9.4633959}, {"name": "Bad Wildungen", "description": "Stadt", "lat": 51.1029078, "lon": 9.0940685}, {"name": "Gescher", "description": "Glockenstadt", "lat": 51.956874, "lon": 7.0038803}, {"name": "Bitburg", "description": "Stadt", "lat": 49.9732762, "lon": 6.524947}, {"name": "Stockach", "description": "Stadt", "lat": 47.8530941, "lon": 9.0134524}, {"name": "Sinzig", "description": "Stadt", "lat": 50.5452042, "lon": 7.2490828}, {"name": "Remagen", "description": "Stadt", "lat": 50.5792112, "lon": 7.2286788}, {"name": "Schwarzenbek", "description": "Stadt", "lat": 53.503122, "lon": 10.4785643}, {"name": "Kelsterbach", "description": "Stadt", "lat": 50.065151, "lon": 8.5296632}, {"name": "Bad Langensalza", "description": "Stadt", "lat": 51.1085823, "lon": 10.6454374}, {"name": "Horn-Bad Meinberg", "description": "Stadt", "lat": 51.8801277, "lon": 8.9731695}, {"name": "Eutin", "description": "Stadt", "lat": 54.1364642, "lon": 10.6159077}, {"name": "Oerlinghausen", "description": "Stadt", "lat": 51.949229450000004, "lon": 8.673579012576445}, {"name": "Heilbad Heiligenstadt", "description": "Stadt", "lat": 51.3756186, "lon": 10.138224}, {"name": "Marktredwitz", "description": "GKSt", "lat": 50.0009915, "lon": 12.0856433}, {"name": "Gunzenhausen", "description": "St", "lat": 49.1147095, "lon": 10.7545933}, {"name": "Bendorf", "description": "Stadt", "lat": 50.4238296, "lon": 7.5732901}, {"name": "Ginsheim-Gustavsburg", "description": "Stadt", "lat": 49.9845346, "lon": 8.3254964}, {"name": "H\u00fcnfeld", "description": "Konrad-Zuse-Stadt", "lat": 50.65546, "lon": 9.7764627}, {"name": "Kelheim", "description": "St", "lat": 48.91849, "lon": 11.8722777}, {"name": "Eltville am Rhein", "description": "Stadt", "lat": 50.0275441, "lon": 8.1189741}, {"name": "Wittenberge", "description": "Stadt", "lat": 52.9983723, "lon": 11.7507204}, {"name": "B\u00fcrstadt", "description": "Stadt", "lat": 49.6531823, "lon": 8.4747076}, {"name": "Kronach", "description": "St", "lat": 50.2397846, "lon": 11.3277669}, {"name": "Penzberg", "description": "St", "lat": 47.7518502, "lon": 11.3763014}, {"name": "Bad Lippspringe", "description": "Stadt", "lat": 51.7833, "lon": 8.81667}, {"name": "Kamenz / Kamjenc", "description": "Stadt", "lat": 51.270139, "lon": 14.0948628}, {"name": "K\u00f6nigstein im Taunus", "description": "Stadt", "lat": 50.195133, "lon": 8.4628165}, {"name": "Brackenheim", "description": "Stadt", "lat": 49.0784228, "lon": 9.067437}, {"name": "Bassum", "description": "Stadt", "lat": 52.8495881, "lon": 8.728382}, {"name": "Reinheim", "description": "Stadt", "lat": 49.8364879, "lon": 8.8238238}, {"name": "Thale", "description": "Stadt", "lat": 51.7527606, "lon": 11.037722}, {"name": "Wurzen", "description": "Stadt", "lat": 51.3709574, "lon": 12.7410574}, {"name": "Heidenau", "description": "Stadt", "lat": 50.9735851, "lon": 13.8753917}, {"name": "Blaustein", "description": "Stadt", "lat": 48.4159247, "lon": 9.9187625}, {"name": "Kirchhain", "description": "Stadt", "lat": 50.8209285, "lon": 8.9199858}, {"name": "Raunheim", "description": "Stadt", "lat": 50.0097685, "lon": 8.4499439}, {"name": "Straelen", "description": "Stadt", "lat": 51.4439341, "lon": 6.2694388}, {"name": "Pocking", "description": "St", "lat": 48.4015189, "lon": 13.3107683}, {"name": "Erwitte", "description": "Stadt", "lat": 51.61431, "lon": 8.3396662}, {"name": "K\u00fcnzelsau", "description": "Stadt", "lat": 49.2803765, "lon": 9.6901512}, {"name": "Marienberg", "description": "Stadt", "lat": 50.6507279, "lon": 13.163188}, {"name": "Sulzbach/ Saar", "description": "Stadt", "lat": 49.2995623, "lon": 7.0614007}, {"name": "Bad Bentheim", "description": "Stadt", "lat": 52.3024786, "lon": 7.1605921}, {"name": "Bargteheide", "description": "Stadt", "lat": 53.7279671, "lon": 10.2618075}, {"name": "Kierspe", "description": "Stadt", "lat": 51.1278531, "lon": 7.6006513}, {"name": "Altena", "description": "Stadt", "lat": 51.2990263, "lon": 7.6734841}, {"name": "Brakel", "description": "Stadt", "lat": 51.7168889, "lon": 9.1841762}, {"name": "Halver", "description": "Stadt", "lat": 51.1874423, "lon": 7.4987312}, {"name": "Freiberg am Neckar", "description": "Stadt", "lat": 48.9345539, "lon": 9.1922557}, {"name": "Mindelheim", "description": "St", "lat": 48.0464164, "lon": 10.4882504}, {"name": "Guben", "description": "Stadt", "lat": 51.9503235, "lon": 14.7153567}, {"name": "Alsfeld", "description": "Stadt", "lat": 50.7523545, "lon": 9.268355}, {"name": "Eilenburg", "description": "Stadt", "lat": 51.4586736, "lon": 12.6344389}, {"name": "Preetz", "description": "Stadt", "lat": 54.2359233, "lon": 10.2818352}, {"name": "Erlensee", "description": "Stadt", "lat": 50.1624394, "lon": 8.9846455}, {"name": "Wendlingen am Neckar", "description": "Stadt", "lat": 48.6727602, "lon": 9.3838404}, {"name": "Markranst\u00e4dt", "description": "Stadt", "lat": 51.3026177, "lon": 12.2204644}, {"name": "Schl\u00fcchtern", "description": "Stadt", "lat": 50.3517, "lon": 9.5613}, {"name": "F\u00fcssen", "description": "St", "lat": 47.5675998, "lon": 10.6993217}, {"name": "Marbach am Neckar", "description": "Stadt", "lat": 48.9402085, "lon": 9.256396}, {"name": "Breisach am Rhein", "description": "Stadt", "lat": 48.0291415, "lon": 7.5806123}, {"name": "Walldorf", "description": "Stadt", "lat": 49.3038134, "lon": 8.6433518}, {"name": "Bad Arolsen", "description": "Stadt", "lat": 51.3649894, "lon": 9.0376388}, {"name": "Michelstadt", "description": "Stadt", "lat": 49.68841, "lon": 9.05647}, {"name": "Weener", "description": "Stadt", "lat": 53.1645939, "lon": 7.3536239}, {"name": "Zeulenroda-Triebes", "description": "Stadt", "lat": 50.6562697, "lon": 12.0058399}, {"name": "Drensteinfurt", "description": "Stadt", "lat": 51.7972657, "lon": 7.7418147}, {"name": "Finsterwalde", "description": "Stadt", "lat": 51.6315282, "lon": 13.707358}, {"name": "K\u00f6nigslutter am Elm", "description": "Stadt", "lat": 52.2499307, "lon": 10.8171691}, {"name": "Wadern", "description": "Stadt", "lat": 49.5410205, "lon": 6.8889313}, {"name": "Rahden", "description": "Stadt", "lat": 52.4333, "lon": 8.61667}, {"name": "Langenau", "description": "Stadt", "lat": 48.4995693, "lon": 10.1210951}, {"name": "L\u00fcbbenau/Spreewald / Lubnjow/B\u0142ota", "description": "Stadt", "lat": 51.8680114, "lon": 13.9689477}, {"name": "Ebersbach an der Fils", "description": "Stadt", "lat": 48.7149061, "lon": 9.5259189}, {"name": "Taucha", "description": "Stadt", "lat": 51.3799905, "lon": 12.4936336}, {"name": "Neustadt in Holstein", "description": "Stadt", "lat": 54.1029898, "lon": 10.8186738}, {"name": "Altdorf b.N\u00fcrnberg", "description": "St", "lat": 49.3858107, "lon": 11.3564341}, {"name": "Schwarzenberg/Erzgeb.", "description": "Stadt", "lat": 50.538248, "lon": 12.7826635}, {"name": "Ribnitz-Damgarten", "description": "Bernsteinstadt", "lat": 54.2433326, "lon": 12.4319733}, {"name": "Dieburg", "description": "Stadt", "lat": 49.8949312, "lon": 8.8368946}, {"name": "Bad Neustadt a.d.Saale", "description": "St", "lat": 50.322637, "lon": 10.2164873}, {"name": "Hofgeismar", "description": "Stadt", "lat": 51.4972178, "lon": 9.4280731}, {"name": "Stadtbergen", "description": "St", "lat": 48.3666284, "lon": 10.8442814}, {"name": "Templin", "description": "Stadt", "lat": 53.1193496, "lon": 13.5005559}, {"name": "Boppard", "description": "Stadt", "lat": 50.2312823, "lon": 7.5885884}, {"name": "Schwalbach am Taunus", "description": "Stadt", "lat": 50.1490109, "lon": 8.5357434}, {"name": "Eppelheim", "description": "Stadt", "lat": 49.4025, "lon": 8.63306}, {"name": "Mainburg", "description": "St", "lat": 48.640589, "lon": 11.7820705}, {"name": "Bad Bramstedt", "description": "Stadt", "lat": 53.9167, "lon": 9.88333}, {"name": "Clausthal-Zellerfeld", "description": "Berg- und Universit\u00e4tsstadt", "lat": 51.8070405, "lon": 10.3364483}, {"name": "Blomberg", "description": "Stadt", "lat": 51.9434473, "lon": 9.0967908}, {"name": "Munster", "description": "Stadt", "lat": 51.9625101, "lon": 7.6251879}, {"name": "Lohr a.Main", "description": "St", "lat": 49.9947528, "lon": 9.573777}, {"name": "Gehrden", "description": "Stadt", "lat": 52.313508, "lon": 9.6008438}, {"name": "Ober-Ramstadt", "description": "Stadt", "lat": 49.8152, "lon": 8.7548}, {"name": "Schriesheim", "description": "Stadt", "lat": 49.4751705, "lon": 8.6611149}, {"name": "Dorfen", "description": "St", "lat": 48.272779, "lon": 12.1505507}, {"name": "Isny im Allg\u00e4u", "description": "Stadt", "lat": 47.6925666, "lon": 10.039203}, {"name": "Brake (Unterweser)", "description": "Stadt", "lat": 53.3256109, "lon": 8.4806296}, {"name": "Fritzlar", "description": "Dom- und Kaiserstadt", "lat": 51.1537071, "lon": 9.2645106}, {"name": "Markgr\u00f6ningen", "description": "Stadt", "lat": 48.9050626, "lon": 9.0808114}, {"name": "Witzenhausen", "description": "Stadt", "lat": 51.3331901, "lon": 9.8434192}, {"name": "Usingen", "description": "Stadt", "lat": 50.350795, "lon": 8.5231684}, {"name": "Neustadt b.Coburg", "description": "GKSt", "lat": 50.3283477, "lon": 11.1226908}, {"name": "Landsberg", "description": "Stadt", "lat": 48.0497474, "lon": 10.8768728}, {"name": "Bad Wurzach", "description": "Stadt", "lat": 47.9084031, "lon": 9.8966021}, {"name": "Karlstadt", "description": "St", "lat": 49.9616823, "lon": 9.7655121}, {"name": "Wei\u00dfwasser/O.L.", "description": "Stadt / B\u011b\u0142a Woda", "lat": 51.5028807, "lon": 14.6373221}, {"name": "Langelsheim", "description": "Stadt", "lat": 51.9356917, "lon": 10.3296997}, {"name": "Neustadt a.d.Donau", "description": "St", "lat": 48.8091474, "lon": 11.7638092}, {"name": "Schwabm\u00fcnchen", "description": "St", "lat": 48.1805562, "lon": 10.7578121}, {"name": "Jever", "description": "Stadt", "lat": 53.5736426, "lon": 7.9020696}, {"name": "M\u00fcnsingen", "description": "Stadt", "lat": 48.4128592, "lon": 9.4947894}, {"name": "Stein", "description": "St", "lat": 54.4160974, "lon": 10.269498}, {"name": "H\u00fcckeswagen", "description": "Schloss-Stadt", "lat": 51.1504872, "lon": 7.3413999}, {"name": "Uhingen", "description": "Stadt", "lat": 48.7042331, "lon": 9.5856424}, {"name": "Selb", "description": "GKSt", "lat": 50.169121, "lon": 12.1297769}, {"name": "Hilchenbach", "description": "Stadt", "lat": 50.9935863, "lon": 8.107365}, {"name": "Homberg (Efze)", "description": "Reformationsstadt", "lat": 51.0117227, "lon": 9.4048406}, {"name": "Abensberg", "description": "St", "lat": 48.8332409, "lon": 11.8570782}, {"name": "Oberndorf am Neckar", "description": "Stadt", "lat": 48.2908613, "lon": 8.5711222}, {"name": "Pattensen", "description": "Stadt", "lat": 52.2636263, "lon": 9.7606529}, {"name": "Montabaur", "description": "Stadt", "lat": 50.4362219, "lon": 7.8302494}, {"name": "Kraichtal", "description": "Stadt", "lat": 49.1319246, "lon": 8.7375729}, {"name": "Langenselbold", "description": "Stadt", "lat": 50.1780814, "lon": 9.04333}, {"name": "Immenstadt i.Allg\u00e4u", "description": "St", "lat": 47.5676081, "lon": 10.2201068}, {"name": "Neutraubling", "description": "St", "lat": 48.9926567, "lon": 12.1990753}, {"name": "Wilsdruff", "description": "Stadt", "lat": 51.0524125, "lon": 13.5362765}, {"name": "Tornesch", "description": "Stadt", "lat": 53.6959113, "lon": 9.7114755}, {"name": "Lauda-K\u00f6nigshofen", "description": "Stadt", "lat": 49.5577854, "lon": 9.7190669}, {"name": "Plochingen", "description": "Stadt", "lat": 48.711173, "lon": 9.4184961}, {"name": "Sassenberg", "description": "Stadt", "lat": 51.9882058, "lon": 8.0407212}, {"name": "Ratzeburg", "description": "Stadt", "lat": 53.7011061, "lon": 10.774288}, {"name": "Burglengenfeld", "description": "St", "lat": 49.2071077, "lon": 12.03996}, {"name": "Ottweiler", "description": "Stadt", "lat": 49.4030447, "lon": 7.1631469}, {"name": "Eberbach", "description": "Stadt", "lat": 49.4635303, "lon": 8.9855203}, {"name": "Olsberg", "description": "Stadt", "lat": 51.355148, "lon": 8.4893388}, {"name": "Eggenfelden", "description": "St", "lat": 48.4031909, "lon": 12.7626208}, {"name": "Gernsbach", "description": "Stadt", "lat": 48.7636394, "lon": 8.3379924}, {"name": "Markdorf", "description": "Stadt", "lat": 47.7206084, "lon": 9.3917257}, {"name": "Landau a.d.Isar", "description": "St", "lat": 48.6699678, "lon": 12.6912228}, {"name": "Sandersdorf-Brehna", "description": "Stadt", "lat": 51.5911163, "lon": 12.2359037}, {"name": "Spenge", "description": "Stadt", "lat": 52.1419264, "lon": 8.4830331}, {"name": "L\u00f6bau", "description": "Stadt", "lat": 51.0947288, "lon": 14.6692423}, {"name": "Zeven", "description": "Stadt", "lat": 53.299291, "lon": 9.280382}, {"name": "Neu-Anspach", "description": "Stadt", "lat": 50.2971783, "lon": 8.4988614}, {"name": "Grafing b.M\u00fcnchen", "description": "St", "lat": 48.0453808, "lon": 11.966071}, {"name": "Lich", "description": "Stadt", "lat": 50.50516, "lon": 8.84162}, {"name": "Murrhardt", "description": "Stadt", "lat": 48.9797657, "lon": 9.5794661}, {"name": "Bad Camberg", "description": "Stadt", "lat": 50.299603, "lon": 8.2673122}, {"name": "Kalkar", "description": "Stadt", "lat": 51.7388793, "lon": 6.2927546}, {"name": "Mittweida", "description": "Stadt", "lat": 50.9854597, "lon": 12.9810458}, {"name": "Dippoldiswalde", "description": "Stadt", "lat": 50.8950479, "lon": 13.6633335}, {"name": "Leuna", "description": "Stadt", "lat": 51.3233638, "lon": 12.0195081}, {"name": "Gr\u00fcnstadt", "description": "Stadt", "lat": 49.5653661, "lon": 8.1634571}, {"name": "Uslar", "description": "Stadt", "lat": 51.658901, "lon": 9.6347785}, {"name": "V\u00f6hringen", "description": "St", "lat": 48.2833039, "lon": 10.0832982}, {"name": "Buchloe", "description": "St", "lat": 48.0361382, "lon": 10.7241879}, {"name": "Melsungen", "description": "Stadt", "lat": 51.1425944, "lon": 9.5833158}, {"name": "Erbach", "description": "Kreisstadt", "lat": 48.3274603, "lon": 9.8913803}, {"name": "Oschatz", "description": "Stadt", "lat": 51.2979627, "lon": 13.1081103}, {"name": "Lorsch", "description": "Karolingerstadt", "lat": 49.6546967, "lon": 8.5682813}, {"name": "Wei\u00dfenhorn", "description": "St", "lat": 48.3044877, "lon": 10.1601492}, {"name": "Erbach", "description": "Stadt", "lat": 48.3274603, "lon": 9.8913803}, {"name": "H\u00f6chstadt a.d.Aisch", "description": "St", "lat": 49.7035803, "lon": 10.8047235}, {"name": "A\u00dflar", "description": "Stadt", "lat": 50.5927946, "lon": 8.4649082}, {"name": "Schwentinental", "description": "Stadt", "lat": 54.2900155, "lon": 10.2254279}, {"name": "Schneeberg", "description": "Stadt", "lat": 50.5950694, "lon": 12.6417008}, {"name": "Rotenburg a. d. Fulda", "description": "Stadt", "lat": 51.018118, "lon": 9.7487639}, {"name": "Wittstock/Dosse", "description": "Stadt", "lat": 53.162999, "lon": 12.4868962}, {"name": "Ettenheim", "description": "Stadt", "lat": 48.2552348, "lon": 7.81349}, {"name": "Ha\u00dffurt", "description": "St", "lat": 50.0318698, "lon": 10.5065562}, {"name": "L\u00fcbben (Spreewald) / Lubin (B\u0142ota)", "description": "Stadt", "lat": 51.9418987, "lon": 13.8963805}, {"name": "Jessen (Elster)", "description": "Stadt", "lat": 51.7931158, "lon": 12.9590741}, {"name": "Bad Soden-Salm\u00fcnster", "description": "Stadt", "lat": 50.2801792, "lon": 9.3704249}, {"name": "Hilpoltstein", "description": "St", "lat": 49.188964, "lon": 11.1892243}, {"name": "Lauchhammer", "description": "Stadt", "lat": 51.4977774, "lon": 13.7400618}, {"name": "Quakenbr\u00fcck", "description": "Stadt", "lat": 52.6757127, "lon": 7.9567402}, {"name": "Krumbach (Schwaben)", "description": "St", "lat": 48.2430587, "lon": 10.3631004}, {"name": "Gr\u00fcnberg", "description": "Stadt", "lat": 50.6137167, "lon": 8.945947}, {"name": "Hohenstein-Ernstthal", "description": "Stadt", "lat": 50.8021139, "lon": 12.7072907}, {"name": "Solms", "description": "Stadt", "lat": 50.5333914, "lon": 8.4073302}, {"name": "Philippsburg", "description": "Stadt", "lat": 49.2367495, "lon": 8.4546679}, {"name": "Bebra", "description": "Stadt", "lat": 50.9835038, "lon": 9.8388054}, {"name": "Lauterbach (Hessen)", "description": "Kreisstadt", "lat": 50.6656227, "lon": 9.4236655}, {"name": "Eichst\u00e4tt", "description": "GKSt", "lat": 48.8933417, "lon": 11.1838965}, {"name": "Frankenberg/Sa.", "description": "Stadt", "lat": 50.9110365, "lon": 13.0331023}, {"name": "Holzgerlingen", "description": "Stadt", "lat": 48.6392119, "lon": 9.0115732}, {"name": "Asperg", "description": "Stadt", "lat": 48.9058591, "lon": 9.1350865}, {"name": "L\u00f6ningen", "description": "Stadt", "lat": 52.7363493, "lon": 7.7570655}, {"name": "Meerane", "description": "Stadt", "lat": 50.8427835, "lon": 12.4581578}, {"name": "Spaichingen", "description": "Stadt", "lat": 48.0730713, "lon": 8.7391941}, {"name": "Beelitz", "description": "Stadt", "lat": 52.2363582, "lon": 12.9700041}, {"name": "Bad D\u00fcrrheim", "description": "Stadt", "lat": 48.0222311, "lon": 8.5299837}, {"name": "Angerm\u00fcnde", "description": "Stadt", "lat": 53.017276, "lon": 13.9981503}, {"name": "Sendenhorst", "description": "Stadt", "lat": 51.8444362, "lon": 7.8273931}, {"name": "Pegnitz", "description": "St", "lat": 49.75649, "lon": 11.540944}, {"name": "Biedenkopf", "description": "Stadt", "lat": 50.9158278, "lon": 8.527162}, {"name": "Pfarrkirchen", "description": "St", "lat": 48.4320329, "lon": 12.9386266}, {"name": "Wanzleben-B\u00f6rde", "description": "Stadt", "lat": 52.0758511, "lon": 11.420522227338772}, {"name": "Hasel\u00fcnne", "description": "Stadt", "lat": 52.6718718, "lon": 7.4830538}, {"name": "Pfullendorf", "description": "Stadt", "lat": 47.924349, "lon": 9.2559822}, {"name": "Bergen auf R\u00fcgen", "description": "Stadt", "lat": 54.4172673, "lon": 13.4305634}, {"name": "Genthin", "description": "Stadt", "lat": 52.4063738, "lon": 12.1561742}, {"name": "Eppstein", "description": "Stadt", "lat": 50.155, "lon": 8.3803}, {"name": "Linden", "description": "Stadt", "lat": 50.6019526, "lon": 7.8504832}, {"name": "Neckargem\u00fcnd", "description": "Stadt", "lat": 49.3954054, "lon": 8.7965893}, {"name": "Tauberbischofsheim", "description": "Stadt", "lat": 49.6229682, "lon": 9.6627138}, {"name": "Wiesmoor", "description": "Stadt", "lat": 53.4114442, "lon": 7.7309444}, {"name": "Schm\u00f6lln", "description": "Stadt", "lat": 50.90783315, "lon": 12.337088227335261}, {"name": "Neustadt a.d.Aisch", "description": "St", "lat": 49.5800045, "lon": 10.6087584}, {"name": "Bad Salzdetfurth", "description": "Stadt", "lat": 52.0595144, "lon": 10.0064728}, {"name": "Bergen", "description": "Stadt", "lat": 49.7808936, "lon": 7.4176059}, {"name": "Bad Laasphe", "description": "Stadt", "lat": 50.9271541, "lon": 8.4123648}, {"name": "Hettstedt", "description": "Stadt", "lat": 51.6500047, "lon": 11.4999986}, {"name": "Oebisfelde-Weferlingen", "description": "Stadt", "lat": 52.3678102, "lon": 11.1099786}, {"name": "Dinklage", "description": "Stadt", "lat": 52.6626633, "lon": 8.1212801}, {"name": "Weinsberg", "description": "Stadt", "lat": 49.1504172, "lon": 9.2865471}, {"name": "Sulingen", "description": "Stadt", "lat": 52.6828374, "lon": 8.8018923}, {"name": "Wolfhagen", "description": "Hans-Staden-Stadt", "lat": 51.3333355, "lon": 9.1968854}, {"name": "Weilburg", "description": "Stadt", "lat": 50.4823062, "lon": 8.2669053}, {"name": "Sch\u00fcttorf", "description": "Stadt", "lat": 52.321619, "lon": 7.2220864}, {"name": "Velen", "description": "Stadt", "lat": 51.8957136, "lon": 6.9839073}, {"name": "\u00d6stringen", "description": "Stadt", "lat": 49.2192418, "lon": 8.7097172}, {"name": "Olfen", "description": "Stadt", "lat": 51.7076224, "lon": 7.3788047}, {"name": "Beverungen", "description": "Stadt", "lat": 51.6676535, "lon": 9.3759072}, {"name": "Plattling", "description": "St", "lat": 48.7766852, "lon": 12.8733655}, {"name": "Zehdenick", "description": "Stadt", "lat": 52.9794838, "lon": 13.3348959}, {"name": "Schleiden", "description": "Stadt", "lat": 50.5285919, "lon": 6.4761556}, {"name": "Roding", "description": "St", "lat": 49.1964174, "lon": 12.5166987}, {"name": "Fehmarn", "description": "Stadt", "lat": 54.4687375, "lon": 11.134084837911693}, {"name": "St. Georgen im Schwarzwald", "description": "Stadt", "lat": 48.1257642, "lon": 8.3330247}, {"name": "Rosbach v. d. H\u00f6he", "description": "Stadt", "lat": 50.2774771, "lon": 8.697439703088971}, {"name": "Treuchtlingen", "description": "St", "lat": 48.9554435, "lon": 10.9089888}, {"name": "Herbrechtingen", "description": "Stadt", "lat": 48.6226932, "lon": 10.1761696}, {"name": "Alt\u00f6tting", "description": "St", "lat": 48.2268085, "lon": 12.6757914}, {"name": "Wehr", "description": "Stadt", "lat": 47.6286078, "lon": 7.9046417}, {"name": "Wasserburg a.Inn", "description": "St", "lat": 48.0615171, "lon": 12.220026}, {"name": "Bad Doberan", "description": "Stadt", "lat": 54.105858, "lon": 11.9026057}, {"name": "Hadamar", "description": "Stadt", "lat": 50.4494908, "lon": 8.048833}, {"name": "W\u00e4chtersbach", "description": "Stadt", "lat": 50.2724, "lon": 9.2857}, {"name": "Linnich", "description": "Stadt", "lat": 50.9806294, "lon": 6.2676208}, {"name": "Hungen", "description": "Stadt", "lat": 50.4696168, "lon": 8.9171014}, {"name": "S\u00fcdliches Anhalt", "description": "Stadt", "lat": 51.6916959, "lon": 12.0666121}, {"name": "Twistringen", "description": "Stadt", "lat": 52.7992604, "lon": 8.6421452}, {"name": "R\u00f6dental", "description": "St", "lat": 50.2971914, "lon": 11.0428276}, {"name": "Besigheim", "description": "Stadt", "lat": 48.9996364, "lon": 9.1417523}, {"name": "M\u00f6ckern", "description": "Stadt", "lat": 52.1405163, "lon": 11.9532769}, {"name": "Feuchtwangen", "description": "St", "lat": 49.1678603, "lon": 10.3313268}, {"name": "Hessisch Lichtenau", "description": "Stadt", "lat": 51.1927404, "lon": 9.7517183}, {"name": "Winterberg", "description": "Stadt", "lat": 51.1930723, "lon": 8.5338466}, {"name": "Herzberg am Harz", "description": "Stadt", "lat": 51.6565219, "lon": 10.3428415}, {"name": "Hersbruck", "description": "St", "lat": 49.5085843, "lon": 11.4285065}, {"name": "Schongau", "description": "St", "lat": 47.8118973, "lon": 10.8972133}, {"name": "Bad Windsheim", "description": "St", "lat": 49.5020006, "lon": 10.4175301}, {"name": "Sulz am Neckar", "description": "Stadt", "lat": 48.3617509, "lon": 8.6314329}, {"name": "Bad Urach", "description": "Stadt", "lat": 48.4937953, "lon": 9.3978845}, {"name": "Velten", "description": "Stadt", "lat": 52.6882194, "lon": 13.1775867}, {"name": "Tamm", "description": "Stadt", "lat": 48.9204307, "lon": 9.1158361}, {"name": "Ladenburg", "description": "Stadt", "lat": 49.4724349, "lon": 8.6106455}, {"name": "J\u00fcterbog", "description": "Stadt", "lat": 51.9916493, "lon": 13.0801128}, {"name": "Blaubeuren", "description": "Stadt", "lat": 48.4121233, "lon": 9.7847091}, {"name": "Brunsb\u00fcttel", "description": "Stadt", "lat": 53.8972549, "lon": 9.1395423}, {"name": "Steinheim", "description": "Stadt", "lat": 51.8660478, "lon": 9.0942767}, {"name": "Vilsbiburg", "description": "St", "lat": 48.448482, "lon": 12.355795}, {"name": "Gladenbach", "description": "Stadt", "lat": 50.7692091, "lon": 8.5812577}, {"name": "R\u00f6thenbach a.d.Pegnitz", "description": "St", "lat": 49.485011, "lon": 11.2474853}, {"name": "Borken (Hessen)", "description": "Stadt", "lat": 51.0579472, "lon": 9.2918981}, {"name": "Bad W\u00fcnnenberg", "description": "Stadt", "lat": 51.5169114, "lon": 8.6986809}, {"name": "Ebersberg", "description": "St", "lat": 48.0782763, "lon": 11.9694372}, {"name": "Neuenburg am Rhein", "description": "Stadt", "lat": 47.8155916, "lon": 7.5627871}, {"name": "Waltershausen", "description": "Stadt", "lat": 50.897728, "lon": 10.5035734}, {"name": "Preu\u00dfisch Oldendorf", "description": "Stadt", "lat": 52.3048433, "lon": 8.4971557}, {"name": "Laichingen", "description": "Stadt", "lat": 48.4896773, "lon": 9.6861474}, {"name": "Zella-Mehlis", "description": "Stadt", "lat": 50.6574735, "lon": 10.6727728}, {"name": "Wernau (Neckar)", "description": "Stadt", "lat": 48.6943334, "lon": 9.4189845}, {"name": "Ludwigslust", "description": "Stadt", "lat": 53.3300229, "lon": 11.4993644}, {"name": "Titisee-Neustadt", "description": "Stadt", "lat": 47.9173421, "lon": 8.1735161}, {"name": "Anklam", "description": "Hansestadt", "lat": 53.8560526, "lon": 13.688091}, {"name": "Gaildorf", "description": "Stadt", "lat": 49.0002603, "lon": 9.7698525}, {"name": "Hagenow", "description": "Stadt", "lat": 53.4305796, "lon": 11.1904828}, {"name": "Bad Freienwalde (Oder)", "description": "Stadt", "lat": 52.787521, "lon": 14.0300689}, {"name": "Maxh\u00fctte-Haidhof", "description": "St", "lat": 49.1987299, "lon": 12.0959905}, {"name": "Dinkelsb\u00fchl", "description": "GKSt", "lat": 49.0691672, "lon": 10.3194022}, {"name": "Burladingen", "description": "Stadt", "lat": 48.2892852, "lon": 9.1134689}, {"name": "Osterhofen", "description": "St", "lat": 48.7019635, "lon": 13.0201434}, {"name": "Frohburg", "description": "Stadt", "lat": 51.0567105, "lon": 12.5576743}, {"name": "Bad Fallingbostel", "description": "Stadt", "lat": 52.8654484, "lon": 9.6930195}, {"name": "Miesbach", "description": "St", "lat": 47.790025, "lon": 11.8335417}, {"name": "Wolgast", "description": "Stadt", "lat": 54.0536473, "lon": 13.7757809}, {"name": "Steinheim an der Murr", "description": "Stadt", "lat": 48.9652015, "lon": 9.2789021}, {"name": "Perleberg", "description": "Stadt", "lat": 53.075548, "lon": 11.821201582869632}, {"name": "Erkner", "description": "Stadt", "lat": 52.4259804, "lon": 13.7542811}, {"name": "Lauenburg/ Elbe", "description": "Stadt", "lat": 53.3789803, "lon": 10.5513889}, {"name": "Oberderdingen", "description": "Stadt", "lat": 49.0626654, "lon": 8.8021324}, {"name": "Neustadt in Sachsen", "description": "Stadt", "lat": 51.0249519, "lon": 14.2140882}, {"name": "Monschau", "description": "Stadt", "lat": 50.5544687, "lon": 6.2407954}, {"name": "Hemsbach", "description": "Stadt", "lat": 49.5919545, "lon": 8.6460261}, {"name": "Lauffen am Neckar", "description": "Stadt", "lat": 49.0760664, "lon": 9.150709}, {"name": "P\u00f6\u00dfneck", "description": "Stadt", "lat": 50.694735, "lon": 11.5953247}, {"name": "Neuenrade", "description": "Stadt", "lat": 51.2831254, "lon": 7.7830374}, {"name": "Bad D\u00fcrrenberg", "description": "Solestadt", "lat": 51.2998551, "lon": 12.0665175}, {"name": "Billerbeck", "description": "Stadt", "lat": 51.9773625, "lon": 7.290923}, {"name": "Wolmirstedt", "description": "Stadt", "lat": 52.2484924, "lon": 11.6267388}, {"name": "Geisenheim", "description": "Hochschulstadt", "lat": 49.9863945, "lon": 7.96852}, {"name": "Hauzenberg", "description": "St", "lat": 48.6551971, "lon": 13.6276784}, {"name": "Leingarten", "description": "Stadt", "lat": 49.1434266, "lon": 9.1240565}, {"name": "Oestrich-Winkel", "description": "Stadt", "lat": 50.0071863, "lon": 8.0167585}, {"name": "Drolshagen", "description": "Stadt", "lat": 51.0237206, "lon": 7.7770856}, {"name": "Walld\u00fcrn", "description": "Stadt", "lat": 49.5833, "lon": 9.36667}, {"name": "Lindenberg i.Allg\u00e4u", "description": "St", "lat": 47.6015641, "lon": 9.8863905}, {"name": "Pritzwalk", "description": "Stadt", "lat": 53.1492896, "lon": 12.1761903}, {"name": "Geisenfeld", "description": "St", "lat": 48.683404, "lon": 11.6124731}, {"name": "Schwaigern", "description": "Stadt", "lat": 49.1414205, "lon": 9.0571085}, {"name": "Marktheidenfeld", "description": "St", "lat": 49.8444065, "lon": 9.6003865}, {"name": "Zw\u00f6nitz", "description": "Stadt", "lat": 50.6301029, "lon": 12.8131994}, {"name": "Bopfingen", "description": "Stadt", "lat": 48.8577633, "lon": 10.3523096}, {"name": "Hildburghausen", "description": "Stadt", "lat": 50.4266327, "lon": 10.7300263}, {"name": "Bad Nenndorf", "description": "Stadt", "lat": 52.3360719, "lon": 9.3769596}, {"name": "Bad Schwalbach", "description": "Kreisstadt", "lat": 50.141688, "lon": 8.071992}, {"name": "Coswig (Anhalt)", "description": "Stadt", "lat": 51.8803541, "lon": 12.458638}, {"name": "Trostberg", "description": "St", "lat": 48.0321101, "lon": 12.5654359}, {"name": "Lauingen (Donau)", "description": "St", "lat": 48.5710836, "lon": 10.4305438}, {"name": "Ochsenfurt", "description": "St", "lat": 49.6643552, "lon": 10.0647551}, {"name": "Engen", "description": "Stadt", "lat": 47.8532383, "lon": 8.7704457}, {"name": "Ebersbach-Neugersdorf", "description": "Stadt", "lat": 51.0007273, "lon": 14.5986609}, {"name": "Diez", "description": "Stadt", "lat": 50.3694175, "lon": 8.0174521}, {"name": "Wittingen", "description": "Stadt", "lat": 52.7289399, "lon": 10.735743}, {"name": "Rothenburg ob der Tauber", "description": "GKSt", "lat": 49.3772526, "lon": 10.1790017}, {"name": "Gr\u00e4fenhainichen", "description": "Stadt", "lat": 51.7309112, "lon": 12.4588675}, {"name": "Welzheim", "description": "Stadt", "lat": 48.8749241, "lon": 9.6347406}, {"name": "Rheinau", "description": "Stadt", "lat": 48.6610699, "lon": 7.9383334}, {"name": "M\u00fclheim-K\u00e4rlich", "description": "Stadt", "lat": 50.3868869, "lon": 7.4975336}, {"name": "Riedlingen", "description": "Stadt", "lat": 48.1534412, "lon": 9.4748796}, {"name": "Isselburg", "description": "Stadt", "lat": 51.8344194, "lon": 6.4614134}, {"name": "Herbolzheim", "description": "Stadt", "lat": 48.2198805, "lon": 7.7769882}, {"name": "Waldkirchen", "description": "St", "lat": 48.7300239, "lon": 13.6015841}, {"name": "Bad Belzig", "description": "Stadt", "lat": 52.1405622, "lon": 12.5865873}, {"name": "Eisenberg", "description": "Stadt", "lat": 50.9691346, "lon": 11.8961116}, {"name": "Rutesheim", "description": "Stadt", "lat": 48.8081226, "lon": 8.9453257}, {"name": "Werther (Westf.)", "description": "Stadt", "lat": 52.0855997, "lon": 8.4279437}, {"name": "Braunfels", "description": "Stadt", "lat": 50.5152452, "lon": 8.390132}, {"name": "Sch\u00f6ningen", "description": "Stadt", "lat": 52.1388507, "lon": 10.9671073}, {"name": "Balve", "description": "Stadt", "lat": 51.3326498, "lon": 7.8670563}, {"name": "Me\u00dfstetten", "description": "Stadt", "lat": 48.180597, "lon": 8.961909}, {"name": "Kenzingen", "description": "Stadt", "lat": 48.1918267, "lon": 7.7689368}, {"name": "R\u00fcthen", "description": "Stadt", "lat": 51.4911392, "lon": 8.4330329}, {"name": "Haigerloch", "description": "Stadt", "lat": 48.3675198, "lon": 8.7985138}, {"name": "Stollberg/Erzgeb.", "description": "Stadt", "lat": 50.6965838, "lon": 12.777007155386865}, {"name": "Lorch", "description": "Stadt", "lat": 48.7982424, "lon": 9.6898657}, {"name": "Donzdorf", "description": "Stadt", "lat": 48.6856725, "lon": 9.8107595}, {"name": "Regen", "description": "St", "lat": 49.1844212, "lon": 12.4251773}, {"name": "Gernsheim", "description": "Sch\u00f6fferstadt", "lat": 49.7466, "lon": 8.5112}, {"name": "Wildau", "description": "Stadt", "lat": 52.3214429, "lon": 13.6348744}, {"name": "Gl\u00fcckstadt", "description": "Stadt", "lat": 53.787927, "lon": 9.4238157}, {"name": "Gengenbach", "description": "Stadt", "lat": 48.4035425, "lon": 8.0153059}, {"name": "Altensteig", "description": "Stadt", "lat": 48.5851784, "lon": 8.6014741}, {"name": "Lichtenau", "description": "Stadt", "lat": 49.2805135, "lon": 10.6836351}, {"name": "Langenzenn", "description": "St", "lat": 49.4950727, "lon": 10.7937902}, {"name": "Oelsnitz/Erzgeb.", "description": "Stadt", "lat": 50.7144724, "lon": 12.7048401}, {"name": "Gronau (Leine)", "description": "Stadt", "lat": 52.0843618, "lon": 9.7754675}, {"name": "Boizenburg/ Elbe", "description": "Stadt", "lat": 53.375079, "lon": 10.7232364}, {"name": "Steinbach (Taunus)", "description": "Stadt", "lat": 50.1672827, "lon": 8.572208}, {"name": "Lichtenstein/Sa.", "description": "Stadt", "lat": 50.7556404, "lon": 12.6345621}, {"name": "Hammelburg", "description": "St", "lat": 50.1152207, "lon": 9.8904404}, {"name": "Dingelst\u00e4dt", "description": "Stadt", "lat": 51.3157508, "lon": 10.3209989}, {"name": "Osterwieck", "description": "Stadt", "lat": 51.9689672, "lon": 10.7135463}, {"name": "Bad Orb", "description": "Stadt", "lat": 50.2267544, "lon": 9.3478635}, {"name": "Dissen am Teutoburger Wald", "description": "Stadt", "lat": 52.115769, "lon": 8.2034345}, {"name": "Endingen am Kaiserstuhl", "description": "Stadt", "lat": 48.1412922, "lon": 7.6999031}, {"name": "Barmstedt", "description": "Stadt", "lat": 53.7889203, "lon": 9.7703927},